"stopId","stopName","stopLat","stopLon","wheelchairBoarding"
1,"Baselga Del Bondone",46.078325,11.047358,2
2,"Baselga Del Bondone",46.078581,11.047541,2
3,"Belvedere",46.044406,11.105342,0
4,"Lamar Ponte Avisio",46.13462,11.110914,2
5,"Sp 85 Bivio Sopramonte",46.085226,11.069313,2
7,"Maso Bolleri",46.102485,11.124174,2
8,"Maso Bolleri",46.102234,11.12394,2
9,"Borino",46.067115,11.165639,2
10,"Cadine Strada Gardesana",46.08863,11.065018,1
12,"Canova Paludi",46.09917,11.109314,1
13,"Gardolo 'Materna Paludi'",46.103846,11.108235,2
14,"Centro Commerciale",46.091584,11.105652,0
15,"Asiago S.Bartolameo",46.047972,11.137456,1
16,"Asiago Banala",46.047681,11.137741,1
17,"Cognola 'Toresela'",46.078904,11.153473,2
18,"Cognola 'Toresela'",46.078863,11.153929,2
19,"Cognola Bivio Civezzano",46.080613,11.158419,2
22,"Cognola Grezoni",46.075911,11.146833,2
23,"Cognola Grezoni",46.076012,11.146613,2
25,"Cognola S.Vito",46.075696,11.140797,2
26,"Cognola S.Vito",46.075623,11.141786,2
23,"Ziano di Fiemme-Alla Roda",46.288617,11.569941,0
5632,"Sopramonte-Maso Petoci",46.066913,11.059466,0
5633,"Sopramonte-Novai",46.067659,11.061524,0
5866,"Candriai-Sp 85 Km. 9.4",46.062236,11.079694,0
5867,"Candriai-Erica.",46.063071,11.08226,0
5868,"Candriai-Sp 85.",46.063684,11.081701,0
5869,"Candriai Malga Brigolina",46.06651,11.076299,0
5194,"S.Nazario",45.838412,11.690546,0
6117,"Coltura",46.058271,10.793851,0
1837,"Lavarone-Hotel Du Lac",45.937154,11.255227,0
2330,"Loc. Landrom Civ. 1",45.80513,10.94076,0
1727,"Tremalzo Bivio",45.864065,10.645069,0
4038,"Arco P. Foro Boario",45.918164,10.887945,0
5967,"Pelugo",46.087322,10.723226,0
6106,"Masi di Sotto-Deposito Tt",45.971235,10.973974,0
6119,"Speccheri Sp 219 Civ.1",45.766545,11.128088,0
557,"Cavalese-Case Itea",46.289444,11.4692,0
1606,"Storo-Al Melograno",45.850363,10.575059,0
2767,"Staineri",45.797307,11.09368,0
2293,"Ss.240 'Millennium Nord'",45.87032,11.016768,2
56,"Penia Alta",46.458443,11.799745,0
535,"Trento-Via Lorenzoni",46.05838,11.122963,0
537,"Trento-Via S.Francesco",46.066636,11.126202,0
590,"Baselga di Pine'-Lago",46.135502,11.249837,0
958,"S.Mauro",46.125272,11.223917,0
959,"Valcava",46.206286,11.31197,0
1656,"Dos Doa",46.054273,10.897553,0
1679,"Dos Doa",46.054075,10.89727,0
2218,"Bedollo-Inc.Osvaldo/Martinati",46.165825,11.298951,0
2220,"Bedollo-Inc.Via S.Osvaldo/Pec",46.168357,11.302237,0
2315,"Tione-Istituto",46.034811,10.728764,0
2321,"Vignole",45.908948,10.901506,0
2384,"Caloneghi",46.198208,11.318204,0
2574,"Lamar",46.12596,11.107593,0
2677,"Cunevo",46.285934,11.037961,0
2759,"Dovena",46.454276,11.130506,0
2783,"Villini",46.417202,11.190257,0
2787,"Passo S.Valentino",45.78311,10.912169,0
3037,"Predazzo-I.T.C.",46.31091,11.59902,0
6068,"S.Silvestro",46.131439,11.769023,0
3134,"Molina di Ledro-Sc.Elementare",45.87084,10.774516,0
3291,"S.Ilario I.T.I.",45.910555,11.041964,0
3319,"Tret Nord",46.480185,11.14211,0
3497,"Polsa",45.781205,10.940804,0
3576,"Baselga di Pinè-Sc.Medie",46.128335,11.244239,0
3597,"Pergine V. Bivio Via Industria",46.069437,11.237763,0
3776,"Tonadico-Scuole Elementari",46.179527,11.83566,0
3950,"Lausen P.Le Impresa Grisotto",46.150588,11.735762,0
4091,"Rovereto-Santuario M.Del Monte",45.879717,11.041039,0
6079,"Tesero-Bivio Via Scandolagia",46.30116,11.505671,0
4147,"Mezzomonte Finito Paese Km 6.3",45.918456,11.138418,0
4239,"Loc. Ischia Civ. 4",46.173243,11.105461,0
4289,"M.Bardo'Colonna Vasellame'",46.20036,11.100587,0
4415,"Cazzano Via Degasperi/Peluso",45.819169,10.967006,0
4483,"Tonale-Colonia Vigili",46.252686,10.538942,0
3995,"Pomarolo-Via Rovereto",45.923522,11.041614,0
4679,"Pergine Vals.-Sc.Garbari",46.066251,11.229915,0
4716,"Passo Cereda Ss 347 Km7.2",46.191933,11.896861,0
4856,"Castelletto 'Ponte Rinassico'",46.247843,11.062196,0
4859,"Canale-Via Delle Stonfe",46.048812,11.233387,0
4880,"Mezzolombardo-Bivio Fai",46.223117,11.081667,0
4881,"Rovereto Via S.Giovanni Bosco",45.891524,11.041678,0
4896,"Dovena-Via Roma Civ. 4",46.456546,11.127469,0
5252,"Cavareno Via Roen 59",46.400523,11.139886,0
5103,"Levico T. Polo Scolastico",46.013611,11.3063,0
5131,"Spiazzo Rend. Colarin Civ. 147",46.10917,10.746099,0
5382,"Malgolo Piazza De Betta",46.378987,11.091228,0
5533,"Andalo Municipio",46.16508,11.003309,0
5726,"Mezzocorona-P.Le Leonardelli",46.217182,11.124917,0
5746,"Civezzano-Strada Alla Fersina",46.088597,11.18439,0
5848,"Costa di Terragnolo Parcheggio",45.88107,11.149818,0
5907,"Vigo di Ton Sp. 203/Sp.124",46.265464,11.077677,0
5914,"Lizzanella-Via Del Garda Lidl",45.872831,11.02843,0
2297,"Sano",45.846341,10.951531,0
89,"Melta Centro",46.099063,11.11927,2
145,"Mesiano 'Fac. Ingegneria'",46.067138,11.139355,1
429,"Gardolo Soprasasso",46.105504,11.107295,1
625,"S.Agnese Via Delle Scornie",46.106519,11.186159,0
627,"Penedallo Via Alle Praderie",46.102875,11.191745,0
1129,"Lizzanella",45.875635,11.031726,0
3124,"Rovereto-Via Zeni",45.89048,11.032628,0
3325,"Rovereto-Ist. Don Milani",45.894292,11.032808,0
5239,"Viote Golfo Sulla Sp85",46.020934,11.041724,0
5400,"Cismon Del Grappa-Fs",45.919665,11.729849,0
6060,"Fiera di P. Via Roma 75 R",46.182427,11.831611,0
443,"Torre Verde Galasso",46.070658,11.122787,2
1340,"Sp.2 Noriglio",45.884371,11.069842,2
1381,"Via Magazol Via Cimarosa",45.899835,11.039968,2
1394,"Via Pasubio Viale Vittoria",45.887266,11.030142,2
1395,"Via Pasubio Via Unione",45.887505,11.024737,2
1402,"Via Saibanti",45.888111,11.036707,0
1410,"Via Zeni 'Centro Tecnofin'",45.890465,11.032705,2
1685,"Via Macello",45.894308,11.032788,0
2319,"Via Magazol Viale Trento",45.898988,11.042024,1
2349,"S.Lucia Chiesa",45.914954,11.02557,2
2475,"Maso Valduga",45.899926,11.054673,2
2476,"Bosco Della Citta'",45.901613,11.055394,0
2477,"Maso Valduga",45.899767,11.054287,2
2478,"Via Vallunga Bivio M. Pipel",45.895243,11.051973,2
2504,"Mori Via Del Garda",45.851519,10.972511,2
2761,"S.Lucia Chiesa",45.914889,11.025888,2
2822,"Mori Via Filzi",45.854392,10.972143,2
2823,"Mori Via Don Sturzo",45.85334,10.97003,2
2825,"Via All'adige",45.888336,11.018627,0
2831,"Via Balista Ist. Veronesi",45.896064,11.030964,2
2841,"Nogaredo Via Verdi",45.911618,11.02456,2
2873,"Casette",45.880722,11.017851,0
2896,"Noriglio Scuole Elementari",45.881946,11.068808,2
2981,"Isera Scuole Elementari",45.882862,11.008239,2
2987,"Stadio Quercia",45.90113,11.036179,0
2999,"Piazza Filzi Via Del Porto",45.883944,11.01814,2
3001,"Via Perosi",45.904236,11.044054,0
3002,"Villa Lagarina Sc.Medie",45.917932,11.031627,2
3005,"Stazione Fs",45.891786,11.034255,0
3006,"Via Benacense Scuole Ex Edili",45.880053,11.035461,2
3010,"Nogaredo Via S.Biagio",45.911887,11.025335,2
3011,"Viale Dei Colli Campolongo",45.887924,11.057295,2
3012,"Viale Dei Colli Campolongo",45.887949,11.057573,2
6015,"Strigno-Via Marconi 49",46.068378,11.522114,0
1178,"Lizzanella",45.876161,11.032031,0
1431,"Via Craffonara",45.886658,11.034356,0
4797,"Costasavina Via S.Martino 27",46.060993,11.224454,0
5609,"Borgo-Bocciodromo",46.051717,11.454155,0
778,"Pinzolo",46.157164,10.765988,0
801,"Campo Carlomagno",46.242978,10.840032,0
4037,"Gardolo-Cima",46.099389,11.111638,0
777,"Giustino-Hotell Royal",46.152049,10.766492,0
2529,"Zambana",46.151196,11.09659,0
2652,"Zambana Aicheri",46.154152,11.092792,0
2654,"Maso San Valentino",46.159261,11.09811,0
150,"Povo Valoni",46.065746,11.146326,1
153,"Montevaccino di Sotto",46.109508,11.140097,2
4238,"Maso Quadrifoglio",46.173866,11.105303,0
4244,"Seio Paese",46.418672,11.127114,0
4438,"Cazzano-Loc. Piazzoli 1",45.814436,10.963957,0
4528,"Maso Tasin",46.027052,11.22216,0
4612,"Sorne-Stalla",45.810269,10.953964,0
4850,"Imer Via Meatoli",46.148666,11.796557,0
5073,"Scanna Civ. 51",46.39474,11.02458,0
5091,"Tobia-Gionghi",45.940362,11.262788,0
5498,"Predazzo-Loc. Gac",46.300349,11.588872,0
5585,"Mechel Capitello--Civ. 28",46.348645,11.021343,0
5706,"Polsa Bivio",45.784295,10.944359,0
5707,"Prada Bivio Per La Polsa",45.800632,10.955918,0
196,"Ravina Chiesa",46.037726,11.107755,2
197,"Ravina Piazza",46.037878,11.108509,1
212,"Romagnano Rimoni",46.016488,11.108269,1
222,"San Donà",46.070879,11.139532,2
224,"San Lazzaro Ponte Avisio",46.137885,11.118354,1
228,"Piazza Madonna Delle Laste",46.074103,11.135256,0
229,"Sopramonte Piazza Oveno",46.071317,11.059207,2
233,"Sopramonte 'Valle'",46.07595,11.055788,2
234,"Sopramonte 'Novai'",46.067706,11.061545,1
279,"Martignano Capitel",46.082132,11.127158,2
289,"Ss 12 'Paludi'",46.102643,11.11049,2
305,"Caneppele Goio",46.094431,11.105006,2
310,"Conci De Riccabona",46.039645,11.140944,2
319,"Degasperi 'Big Center'",46.044947,11.128128,2
342,"Gandhi 'Parco Anna Frank'",46.051689,11.124402,1
383,"Menguzzato 'Centro Civico'",46.040449,11.13169,1
425,"Solteri Largaiolli",46.090005,11.120776,1
439,"Sp 90 'Maso Prudenza'",46.028867,11.111521,2
446,"Vittorio Veneto 'S.Giuseppe'",46.057772,11.119307,1
451,"Venezia Cave",46.066491,11.132676,2
484,"Villazzano Piazza Nicolini",46.048986,11.145976,1
1302,"Marco Via Alla Ghiffa",45.840222,11.009563,2
1335,"Viale Dei Colli 'Distributore'",45.887518,11.059253,2
1362,"Via Benacense Parco Ferrari",45.877921,11.033242,1
1391,"Via Paoli",45.891431,11.040037,0
1398,"Via Puccini Via Perosi",45.903785,11.045042,1
2221,"Casa Nel Bosco",45.882386,11.076318,0
2246,"Mori Piazza Cal di Ponte",45.85172,10.977892,2
2289,"Ss.240 'Millennium Sud'",45.868678,11.014119,2
2296,"Saltaria",45.895205,11.067408,2
2395,"S.Bernardo",46.40124,10.845317,0
2309,"Via Della Libertà",45.884868,11.017591,0
2322,"Via Puccini Via Donizetti",45.901706,11.046261,1
2375,"Trieste 'Busa'",46.064822,11.135627,1
2430,"Sanseverino Monte Baldo",46.057694,11.11258,2
2502,"Vigo Meano Don Perugini",46.132987,11.133921,2
2668,"Fersina 'Zona Artigianale'",46.038207,11.124589,1
2676,"Via Cittadella Via Mozart",45.901288,11.040122,1
2767,"Vigo Meano 'S.Pietro'",46.128251,11.134574,1
2768,"Via Unione Scuole Filzi",45.888575,11.024197,2
2801,"Vela 'Scuole S.Vigilio'",46.081292,11.102659,1
2833,"Povo 'Polo Scientifico' Ovest",46.067348,11.150372,1
2927,"Venezia 'Port'aquila'",46.069525,11.127855,1
1888,"Vanza",45.852886,11.077952,0
2973,"Piazzale Divisioni Alpine",46.071069,11.109927,1
2991,"Parcheggio Area Camper",46.034263,11.127218,0
11,"Castello di Fiemme",46.281206,11.434741,0
51,"Alba di Canazei-Hotel Ariston",46.466319,11.780898,0
81,"Gardolo-Loc.Lamar",46.129071,11.109731,0
105,"Faver-Ufficio Postale",46.183755,11.240754,0
117,"Molina di F.-Via Segherie",46.272436,11.424112,0
135,"Gardolo-Cicli Moser",46.102641,11.110469,0
578,"Trento-Via Valsugana",46.068327,11.136287,0
597,"Centrale di Bedollo",46.160828,11.302262,0
612,"Trento-Port'aquila",46.069905,11.128513,0
614,"Civezzano-Centro Europa",46.083653,11.198164,0
667,"Stramentizzo-Bivio",46.266408,11.406559,0
695,"S.Orsola-Loc. Doss Martin",46.11467,11.3076,0
725,"Cadine",46.088572,11.064986,0
727,"Vigolo Baselga-Paese",46.081449,11.044965,0
843,"Sardagna-Maso Scala",46.069871,11.097749,0
849,"Vaneze-Bivio Prà Della Fava",46.056968,11.076349,0
858,"Ponte Ragoli-Ss.237 Dir.Sarche",46.050263,10.786769,0
872,"Vaneze-Sp.85",46.051411,11.069391,0
873,"Vaneze-Norge",46.049242,11.06666,0
948,"Olle-Via Del Boaletto",46.040761,11.465108,0
962,"Pergine V.-Viale Dante",46.065908,11.228116,0
1002,"Castello Tesino",46.064873,11.633294,0
1039,"Casalino-Stadio Del Ghiaccio",46.072183,11.235642,0
1075,"S.Lucia",46.003159,11.840783,0
1082,"Arten",46.008708,11.831534,0
1121,"Calliano-Grafiche Manfrini",45.928835,11.093172,0
1125,"Rovereto-V.Le Trento",45.900157,11.041998,0
1148,"Riva Del G. C.Comm. 2000",45.896469,10.851309,0
1188,"Trento-Man",46.037835,11.130486,0
1189,"Trento-Ponte Cavaleggeri",46.059353,11.126297,0
1200,"Bellamonte-Albergo Zaluna",46.314589,11.647139,0
1268,"Torcegno-Segheria",46.07477,11.451065,0
1469,"Ceniga",45.951387,10.900851,0
1484,"Miola",46.126782,11.246524,0
1501,"Miola-Bivio Ferrari/Miola",46.124923,11.243146,0
1519,"Ville Del Monte",45.930259,10.822412,0
1536,"Trento-Via M.Baldo",46.057536,11.117437,0
1575,"Breguzzo-Loc. Petò",46.018713,10.711183,0
1886,"Vanza Vn",45.854586,11.078518,0
1625,"Fontanedo",45.978898,10.666773,0
1652,"Stenico-Scuola",46.04986,10.856623,0
1698,"Strigno-Loc. Colle",46.067492,11.515873,0
1749,"Vigo Cavedine Bivio",45.978039,10.977663,0
1765,"Pasina Bivio",45.905638,10.851485,0
1772,"Romagnano-Sp131 Km 1",46.012418,11.106722,0
1795,"Garniga-Piazza Lago",46.004809,11.08584,0
1869,"Rovereto-Ex Cartiera Ati",45.887115,11.050652,0
1884,"Boccaldo Alta",45.857597,11.087987,0
1896,"Lizzana-Rovercenter",45.864519,11.029207,0
1956,"Calliano-Bivio Folgaria",45.933019,11.09672,0
1967,"Rovereto-Via Bellavista",45.89092,11.047005,0
1970,"Noriglio-Beccachè",45.882075,11.071791,0
1971,"Costa di Noriglio",45.884272,11.07299,0
2019,"Rovereto-Via Dante",45.886462,11.040333,0
2036,"Rovereto-S.Maria",45.883632,11.040799,0
2063,"Valmorbia-Bivio Dosso",45.816939,11.094622,0
2077,"Piano di Vallarsa",45.771493,11.135679,0
2132,"Saccone-Loc. Al Bus",45.796067,10.965987,0
2241,"Rocce Rosse",46.031915,11.045708,0
2274,"Ponte Arche Sp5 Civ. 1",46.03511,10.868135,0
2319,"Rovereto-Via Barattieri",45.896492,11.040687,0
2358,"Regnana Via Dei Tamagi",46.158144,11.303494,0
2377,"Falcade Bivio Passo Valles",46.360072,11.844299,0
2418,"Dimaro P.Zza Centrale",46.325262,10.874894,0
2466,"Marilleva 'Albergo Sole Alto'",46.29852,10.818789,0
1175,"Ravazzone di Mori",45.858717,10.990649,0
2468,"Marilleva 1400 'Ag.Alpitour'",46.302481,10.810259,0
2533,"Spormaggiore Zona Industriale",46.227458,11.051655,0
2553,"Fai Paganella",46.177583,11.069132,0
2562,"Rallo",46.342731,11.046707,0
2566,"Tuenno",46.325965,11.022364,0
2616,"Pozza di Fassa 'Loc. Vac'",46.432642,11.687083,0
2643,"Masi di Vigo-Bivio",46.24899,11.068939,0
2697,"Campodenno-Bivio",46.2588,11.032814,0
2708,"Cavareno-Loc. Piena",46.402899,11.132187,0
1463,"Gaggiolo",45.993529,10.926561,0
2718,"Ruffrè-Giordani",46.419337,11.175865,0
2803,"Sornello-Piazzale Ex Dogana",46.182122,11.122684,0
2809,"Pergolese-Inc Via Dos Dei Pini",46.030486,10.95882,0
2816,"Daiano-Ss620 Bivio Per Daiano",46.299754,11.452598,0
3308,"Rovereto Scuola Ex Edili",45.879909,11.035312,0
3960,"Trento-Via Guardini",46.091632,11.119298,0
3969,"Pietramurata-Stab.Mecc.Sarca",46.025811,10.944803,0
4108,"Riva V.Le Rovereto Coop",45.881839,10.854328,0
4261,"Rovereto-Ospedale",45.881862,11.038386,0
4269,"Marco",45.841432,11.008357,0
4286,"S.Orsola Bivio Loc. Dosi",46.093569,11.283177,0
4383,"S.Michele Sp 58 Convitto",46.195558,11.13484,0
4466,"Cavareno Via Roma Civ. 20",46.405818,11.135391,0
4616,"Povo Via Mesiano",46.064943,11.141679,0
4687,"Cembra-Loc. Predole 23/2",46.169154,11.209925,0
4693,"Cagno'-Terrazza Dei Sapori",46.393652,11.034126,0
4721,"Rovereto-Ist. Veronesi",45.891286,11.034323,0
4743,"Riva V.Rovereto Dif. Coop",45.881612,10.854462,0
4749,"Riva Del G Vle Dante Alighieri",45.886213,10.844356,0
5049,"Rocce Rosse-Nuovi Golfi",46.032921,11.049854,0
5077,"S.Michele 'Fondazione-Mensa'",46.194907,11.135489,0
5141,"Coredo Via Zambaroni 12",46.349177,11.088842,0
2467,"Marilleva 'Telecabina'",46.300719,10.81381,0
5150,"Campitello Hotel Salvan",46.474285,11.73838,0
5152,"Mori-Trenitalia",45.861249,11.002346,0
5696,"Tomaselli Sp39 'Chiesetta'",46.06909,11.528336,0
5701,"Roveda-Maso Stiopetteri",46.071529,11.302337,0
5717,"Cimego Chiesa",45.912842,10.612673,0
5936,"Vigo di Fassa Prà De Carolina",46.418311,11.676947,0
166,"S.Francesco Porta Nuova",46.066776,11.126346,1
167,"Piazza Vicenza",46.062137,11.132764,0
2245,"Mori Bar Centrale",45.851666,10.978853,2
3009,"Volano Casa di Riposo",45.920407,11.066981,2
55,"Penia-Hotel Panarel",46.456572,11.801537,0
98,"Lisignago-Loc.Bedin",46.164966,11.203565,0
99,"Cembra-Cimitero",46.174519,11.217348,0
1248,"Trento-Via Valsugana",46.06912,11.136319,0
128,"Lisignago",46.160227,11.187885,0
795,"M.Campiglio Des Alpes",46.230343,10.827885,0
798,"M.Campiglio Brenta Alta",46.231942,10.826145,0
884,"Zuclo",46.03416,10.747301,0
1071,"Ponte Serra",46.029632,11.762566,0
1106,"Primolano-Staz. Fs",45.965663,11.701313,0
1173,"Mori-Bar Centrale",45.851608,10.978989,0
1891,"Pozzacchio",45.834522,11.082925,0
5727,"Mezzolordo Ex Sc. Media",46.216707,11.092588,0
2238,"Torbole",45.87086,10.875738,0
2246,"Cembra-Cimitero",46.174568,11.217545,0
2353,"Costa di Cimone",45.978262,11.060241,0
2383,"Lisignago-Casa di Riposo",46.161789,11.198439,0
2417,"Dimaro Coop",46.327363,10.872176,0
2447,"Mezzana Despar",46.315749,10.802461,0
2465,"Marilleva 900",46.314155,10.811592,0
2351,"Luxottica-Agordo",46.284248,12.021344,0
3002,"Cembra-Polo Scolastico",46.172897,11.223458,0
4021,"Lisignago-Campo Sportivo",46.158861,11.192014,0
2469,"Marilleva 1400 'Resid. Lores'",46.30361,10.809153,0
5805,"Canazei-Via Pareda",46.47629,11.770958,0
5814,"Mezzana-Est",46.317146,10.806872,0
5940,"Panchià-Casa Cantoniera",46.287224,11.531961,0
5942,"Predazzo Via Fiamme Gialle",46.303587,11.593642,0
5944,"Predazzo-Distributore Agip",46.317177,11.597112,0
5945,"Predazzo-Loc. Fol",46.32233,11.597912,0
5948,"Forno",46.34722,11.624669,0
5949,"Forno-Albergo Foresta",46.355078,11.634437,0
5952,"Moena-Albergo Trentino",46.373211,11.655352,0
5954,"Moena-Pezzè",46.381214,11.665691,0
5955,"Soraga-Hotel Al Lago",46.392382,11.6667,0
5959,"Pera di Fassa-Loc. Al Ponte",46.441657,11.695427,0
5964,"Tione-Via Circonvallazione 65",46.036584,10.72816,0
5968,"Strembo",46.120371,10.751922,0
5969,"Caderzone Bivio Con Via Pozze",46.124768,10.754291,0
207,"Romagnano 7 Fontane",46.014689,11.105064,2
211,"Romagnano Rimoni",46.016782,11.108221,1
257,"Gardolo 4 Nov. Canova",46.098861,11.112925,1
1301,"Marco",45.836852,11.011188,0
1373,"Viale Dei Colli Sc. Alberghiera",45.891046,11.047336,2
3138,"Bezzecca-Via Lamarmora",45.897422,10.720162,0
5624,"Marilleva 1400",46.304257,10.809213,0
5671,"Marilleva Sp 206 Km 6.4",46.303907,10.832291,0
1481,"Tesero Bivio",46.285506,11.523799,0
5811,"Mezzana-Ovest",46.316597,10.798333,0
5813,"Mezzana Caseificio",46.315525,10.801259,0
5937,"Tesero-Giardino Dolomiti",46.29229,11.485726,0
5938,"Tesero-Loc. Piera R",46.291372,11.492807,0
5939,"Tesero-Via Roma",46.289253,11.503194,0
2022,"Bivio Porte di Trambileno",45.883259,11.051312,0
5971,"Caderzone-Off. Alfa Romeo",46.131787,10.764304,0
5972,"Giustino",46.145927,10.768305,0
5974,"S.Antonio di Mav.-Loc. Pozze",46.183791,10.777007,0
5977,"S.Antonio di M.-Rio V.Rastrel",46.195343,10.795758,0
5978,"S.Antonio di M.-Palù",46.197373,10.797107,0
5979,"Madonna di C.-Loc.Paluac",46.205362,10.81326,0
5982,"Madonna di Campiglio-Vvff",46.22454,10.825264,0
5983,"Madonna di C.-Laghetto",46.226019,10.827868,0
5984,"Madonna di C.-Biv. V.Nambino",46.235465,10.826428,0
6046,"Mori-Bivio Sud",45.853367,10.967981,0
350,"Gocciadoro 'Arcate'",46.05491,11.133806,1
423,"Solteri 'Piazzina'",46.085516,11.122391,2
490,"Zell Marnighe",46.080366,11.138214,1
1349,"Lizzana Scuole Medie",45.870623,11.031133,1
1350,"Lizzanella Ss.12",45.875522,11.031822,2
1357,"Via Benacense Via Fiume",45.882042,11.03836,1
1413,"Viale Trento Via Magazol",45.899616,11.042207,1
2266,"Noriglio Mon. Ai Caduti",45.883665,11.070377,2
2374,"Trieste Fiume",46.063369,11.133421,2
2384,"Zambra 'Top Center'",46.091124,11.117966,2
2492,"Roncafort Bettine",46.097544,11.10222,1
2682,"Povo Sommarive",46.065586,11.150448,2
2763,"Gard.D.Mezzo Dos D.La Luna",46.115344,11.117269,2
2828,"Interporto 'Sait'",46.11337,11.090118,1
2924,"Cadine Della Fornas",46.086923,11.069368,2
2984,"Via Parteli",45.896553,11.03662,0
80,"Gardolo-Bivio Spini",46.118886,11.106155,0
133,"Lamar di Gardolo-Ss.12-Ftm",46.125856,11.107861,0
134,"Gardolo-Ss.12",46.108559,11.108767,0
532,"Trento-Via Giusti",46.063168,11.119074,0
611,"Ponte Alto",46.073949,11.150317,0
5916,"Bezzecca-Via Lamarmora",45.89661,10.71966,0
1612,"Lodrone",45.829192,10.535456,0
6049,"Linfano Bivio",45.875583,10.871503,0
6056,"S.Martino di C.-Motel Taufer",46.252478,11.802392,0
6058,"Valmesta Bivio Rif.Dismoni",46.222916,11.808835,0
1183,"Volano",45.917749,11.063577,0
6065,"Imer-Via Nazionale 1",46.151919,11.800797,0
6066,"Imer Via Nazionale 144",46.149793,11.791693,0
6069,"Pontet",46.106741,11.774054,0
6076,"Feltre-Ospedale",46.021853,11.908009,0
6077,"Feltre Pasquer",46.021084,11.919118,0
6084,"Padergnone-Case Enel",46.058818,10.982886,0
6085,"Padergnone-Loc.Barbazan",46.060053,10.990529,0
6087,"Vezzano",46.078435,11.000157,0
6090,"Zuclo Ss237 'Superm. Lidl'",46.040152,10.748601,0
6091,"Preore",46.046154,10.75811,0
6092,"Preore-Loc. Molina",46.047774,10.764534,0
6093,"Sarche-Bar Miravalle",46.044456,10.944797,0
173,"Tanzengiale Ovest Pezcoller",46.047739,11.113564,2
100,"Ss 12 'Le Caverne'",46.030338,11.132911,1
193,"Ravina Masere",46.039202,11.112293,1
723,"Trento-Via Brescia 4",46.070701,11.112276,0
841,"Trento-Maso Pedrotti",46.07556,11.098223,0
871,"Vaneze",46.051918,11.071938,0
1100,"Povo-Mesiano",46.066119,11.142772,0
1115,"Acquaviva",45.989952,11.12278,0
1124,"S.Ilario",45.908274,11.040552,0
1187,"Mattarello",46.005251,11.126637,0
1531,"Trento-Osp. S.Chiara",46.058154,11.131198,0
1532,"Trento-Ospedale S.Camillo",46.065482,11.131826,0
1535,"Trento-Via Barbacovi",46.064481,11.129758,0
1705,"Barcesino",45.870893,10.781512,0
1771,"Romagnano-Sp 131 Km 2",46.009349,11.119329,0
1773,"Romagnano-Cava Lonardi",46.007832,11.10792,0
1800,"Ravina Bivio",46.037512,11.114096,0
1813,"Valsorda",46.007836,11.156884,0
1866,"Rovereto-Via Craffonara",45.88659,11.034169,0
1893,"Rovereto-Ospedale",45.881832,11.038063,0
1968,"Campolongo-Noriglio",45.887004,11.063812,0
1969,"Noriglio",45.884541,11.069559,0
2213,"Trento-Via Bezzi",46.058466,11.11927,0
2243,"Rovereto-Via Vannetti",45.890246,11.035597,0
2280,"Baselga Del Bondone",46.078317,11.046923,0
2371,"Sopramonte Sp85 Loc. La Valle",46.075881,11.05603,0
2372,"Sopramonte Sp 85",46.075775,11.058709,0
2571,"Trento Nord-Zona Commerciale",46.090056,11.113028,0
2572,"Gardolo-Ferrovia",46.108097,11.104558,0
2530,"Borino",46.066995,11.165585,2
3721,"Bassano Del Grappa",45.766709,11.74165,0
3873,"Rovereto-Via Zugna Civ. 48",45.884392,11.049382,0
4068,"Mattarello-Via Nazionale",46.01356,11.131504,0
4100,"Via Dei Colli-Tornante",45.888407,11.054878,0
4243,"Rovereto Via Halbherr",45.885043,11.037665,0
4477,"S.Bartolameo-Staz. Fs",46.04746,11.135147,0
4704,"Villazzano Fs-P/Golfi Urbani",46.044756,11.13969,0
4802,"Trento Forte Bus De Vela",46.084939,11.070058,0
4921,"Trentino Trasporti",46.102234,11.094461,0
5035,"Noriglio Loc. Masi Brenta",45.878437,11.084034,0
5202,"Romagnano Loc.Torricella Sft",45.993002,11.098521,0
5475,"Rovereto-Via Savioli",45.892086,11.037432,0
152,"Montevaccino di Sotto",46.109439,11.139972,2
135,"Meano 'Campo Sportivo'",46.128279,11.120267,1
140,"Sp 76 'Via Rossa'",46.119812,11.111266,2
203,"Romagnano Nord",46.020174,11.110857,2
206,"Romagnano Fontanelle",46.014633,11.106836,2
223,"Lamar Sponda Trentina",46.134588,11.11169,2
247,"Piazza Dante 'Stazione Fs'",46.071917,11.119568,1
266,"Al Desert Ragazzi Del '99",46.046952,11.115704,1
270,"Apuleio 'Ponte S.Giorgio'",46.07622,11.11503,2
277,"Barbacovi 'Itg Pozzo'",46.064329,11.129974,1
285,"Lamar 'Sottostazione Enel'",46.130819,11.110121,2
306,"Spalliera Cereria",46.07417,11.128506,2
328,"Martignano Castori",46.083311,11.127683,1
331,"Ponte S.Giorgio",46.076974,11.114129,0
334,"F.Lli Fontana Oberziner",46.077461,11.116749,1
349,"Giusti 'Arcivescovile'",46.061394,11.11904,1
355,"Grazioli Brigata Acqui",46.067096,11.12881,2
371,"Maccani 'Ex Sloi'",46.087887,11.110721,1
385,"Menguzzato Al Casteller",46.038106,11.134135,1
391,"Missioni Africane",46.078671,11.127111,0
403,"Romagnosi Vannetti",46.072993,11.122651,1
420,"Segantini Centa",46.075601,11.122399,1
440,"Sp 90 'Maso Prudenza'",46.02929,11.111771,2
444,"Travai Al Nuoto / Muse",46.064556,11.120926,1
462,"Verona Einaudi",46.052915,11.129683,1
471,"Gazzadina Al Molar",46.130605,11.130767,2
476,"Villazzano 'Villa Tambosi'",46.043867,11.14023,1
2348,"Marco Via Ii Novembre 30",45.847797,11.011652,0
495,"Spini 'Zona Ind.Le Ftm'",46.118028,11.103638,2
1280,"Corso Bettini 'Mart'",45.893031,11.043616,1
1311,"Piazzale Orsi Stazione Fs",45.890189,11.03427,1
2612,"Mechel Civ. 19",46.349423,11.020085,0
1313,"Piazzale S.Giorgio Est",45.89551,11.029591,0
1320,"Piazza Battisti",45.890071,11.043906,0
1332,"S.Ilario Via Monti",45.91099,11.040806,2
1339,"Sp.2 Noriglio",45.884263,11.070323,2
1376,"Via Driopozzo Bivio Solatrix",45.899638,11.044451,2
1393,"Via Pasubio Viale Vittoria",45.887211,11.030668,1
1401,"Via Saibanti",45.888163,11.036728,0
1408,"Via Unione Scuole Degasperi",45.885236,11.023282,2
1443,"Viale Del Lavoro 'Rovercenter'",45.863613,11.027012,2
2241,"Maso Mortal",45.882917,11.07947,2
2242,"Moietto",45.894865,11.086017,0
2275,"Mori Stazione Via Stazione",45.861992,11.000505,2
4231,"Trento Casa Girelli",46.048138,11.131115,0
2325,"Noriglio Via Valteri",45.88614,11.06526,2
2329,"Via Vicenza Via Asiago",45.885561,11.059525,2
2383,"Guardini 'Centochiavi'",46.092561,11.11858,1
2423,"Maso Rossi Aichner",46.105166,11.100786,2
2432,"Sanseverino Verdi",46.065846,11.114266,1
2448,"Ghiaie 'Sc. Materna'",46.124931,11.099736,2
2481,"Viale Dei Colli Via Vallunga",45.891091,11.049783,2
2489,"Pranzelores 'Tridente'",46.086557,11.120064,1
2527,"Via Eremo",46.067996,11.175565,0
2538,"Verona 'Big Center'",46.045691,11.131061,1
2549,"Povo 'Polo Sociale' Cap.",46.065613,11.158009,1
2664,"Spini Loghét",46.120499,11.091086,1
2667,"Fersina 'Campi Da Tennis'",46.044826,11.122297,1
2699,"Ss.12 'Rovercenter'",45.864206,11.02905,2
2707,"Via Unione 'Residenza Eos'",45.893295,11.027254,2
2776,"Via Zigherane",45.87959,11.02331,2
2790,"Spini 'Casa Circondariale'",46.127009,11.096719,1
2797,"Interporto 'Fercam'",46.108238,11.0916,1
2814,"Mattarello Gotarda",46.009941,11.128458,2
2852,"Marco Via S.Romedio",45.847437,11.003378,2
2878,"Ossario Castel Dante",45.871891,11.035445,0
1703,"Biacesa",45.86505,10.805388,0
2891,"Noriglio Parco Alle Pozze",45.884317,11.065743,2
2899,"Via Unione 'Residenza Eos'",45.893502,11.027541,2
2914,"Noriglio Parco Alle Pozze",45.884247,11.065179,2
2950,"Mattarello 'Parco'",46.007874,11.131417,1
2963,"Via Brigata Mantova",45.868386,11.036301,0
5385,"Manzano-Bivio",45.864482,10.950221,0
2993,"Via Del Garda Via Porte Rosse",45.872891,11.028586,2
3003,"Strada Degli Artiglieri",45.869985,11.03645,0
74,"Trento-Stazione Fs",46.0726,11.120056,0
77,"Trento-Assoc. Artigiani",46.082969,11.12031,0
579,"Ponte Alto",46.073787,11.150439,0
722,"Trento-Off.Conotter",46.075974,11.101123,0
724,"Montevideo",46.080369,11.098522,0
839,"Cadine",46.088855,11.064513,0
842,"Trento-Loc. S.Antonio",46.069885,11.100439,0
1081,"S.Lucia",46.003275,11.840815,0
1580,"Pra' di Bondo",45.996292,10.69068,0
1624,"Roncone",45.984559,10.672081,0
1627,"Forti di Lardaro",45.963004,10.658392,0
1825,"Pian Dei Pradi",45.979043,11.237369,0
2326,"Vattaro-Maso Fosina",45.997039,11.211763,0
216,"Povo Salé",46.062016,11.150851,2
220,"San Donà 'Chiesa'",46.072152,11.138406,2
846,"Candriai",46.065417,11.083408,0
848,"Centro A.Degasperi",46.059629,11.077756,0
1108,"Trento-C.So Tre Novembre",46.062416,11.123713,0
1111,"Trento Viale Verona Big Center",46.045612,11.130966,0
1128,"Rovereto-Difr.Rist.Cristina",45.881366,11.03186,0
1131,"Centro Commerciale Millenium",45.86879,11.014188,0
1140,"Nago",45.878476,10.890669,0
1171,"Nago",45.878302,10.890542,0
1179,"Rovereto-Rist.Cristina",45.881389,11.032067,0
1181,"Rovereto-V.Le Trento",45.900353,11.042123,0
1467,"Dro",45.961474,10.910726,0
1528,"Gardolo-Zona Ind.Le",46.105316,11.100608,0
1530,"Trento-Ospedale S.Chiara",46.058154,11.132919,0
1534,"Trento-P.Zza Venezia",46.067676,11.126902,0
1769,"Mattarello-Ex St.Vestimenta",46.000537,11.126173,0
1770,"Mattarello-Ss 12",46.010331,11.128951,0
1774,"Romagnano-Sp 90 Km 20",46.002046,11.104938,0
1799,"Romagnano Bivio",46.016038,11.107805,0
1808,"Trento-Piazza Vicenza",46.062177,11.132905,0
1865,"Rovereto-Via Paoli",45.891149,11.039963,0
1867,"Rovereto-Via Calcinari",45.886539,11.044667,0
1898,"Marco-Officina",45.843877,11.008605,0
1931,"Rovereto-Via Cavour",45.887281,11.034552,0
2020,"Rovereto-Viale Schio Civ. 19",45.883683,11.043476,0
2021,"Rovereto-Via Zugna Civ. 13",45.884371,11.046558,0
2187,"Rovereto-Fs Sud",45.89032,11.034004,0
2242,"Rov.-C.Rosmini Pt",45.891069,11.041276,0
2264,"Ss.12 S.Ilario/Via Stroperi",45.913228,11.044675,0
2266,"Vason-Sp85 Al Km 17",46.042742,11.061772,0
2561,"Rallo Bivio",46.350029,11.051765,0
2680,"Tuenno-Sud",46.32147,11.021827,0
2683,"Santa Giustina",46.346039,11.060428,0
4387,"Tassullo-Ss 43 Cementificio",46.349409,11.055871,0
4389,"Pian Dei Pradi-Rotatoria",45.978337,11.236205,0
4467,"Rallo-Via Nuova Civ. 103",46.341089,11.045511,0
4748,"Pavillo-Via De Le Bas Cere",46.329184,11.042764,0
4916,"Nanno-Via Bergamo Civ. 5",46.319385,11.046685,0
5147,"Portolo-Via San Tomaso",46.305004,11.056616,0
237,"Sopramonte 'Bunaga'",46.06973,11.057698,1
240,"Spini Linz",46.11855,11.096708,2
244,"Spré S.Lucia",46.069214,11.161151,2
248,"Tavernaro Centro",46.081448,11.154819,2
249,"Tavernaro Centro",46.081579,11.155098,1
252,"Tavernaro 'Villa Clementi'",46.080906,11.157521,2
260,"Adamello Gorizia",46.059853,11.132395,2
263,"M. Rossi 'Stella D.Mattino'",46.107331,11.100406,2
269,"Apuleio 'Case Degasperi'",46.073284,11.115482,1
273,"Asiago 'Bellevue'",46.053209,11.136495,2
281,"Bettini 'Nido Mad. Bianca'",46.040477,11.135351,1
284,"Bolghera 'S.Antonio'",46.058155,11.131199,1
288,"Ss 12 Canova",46.098985,11.111739,1
292,"Brennero 'Bren Center'",46.091461,11.115591,1
296,"Brennero 'Magnete'",46.089442,11.116527,1
300,"Brennero 'Tridente'",46.086479,11.118447,1
304,"Caneppele Goio",46.094476,11.105228,2
308,"Martignano Cesarini",46.086271,11.129177,2
1310,"Nomi Piazza Springa",45.928891,11.072085,2
2248,"Mori Piazzale Kennedy",45.851716,10.979141,1
2820,"Povo Pantè",46.063947,11.15056,2
2827,"Via Monte Pipel",45.895096,11.057074,0
62,"Canazei-Hotel Faloria",46.47144,11.77794,0
2426,"Trento-Staz. Ftm",46.074288,11.120767,0
2548,"Trento-L.Go N. Sauro",46.074839,11.125033,0
2820,"Sardagna-Rotatoria",46.065664,11.095495,0
2918,"Zona Industriale Spini",46.118254,11.096919,0
3109,"Trento-Bellevue",46.053214,11.136442,0
3331,"Rovereto-Sc.Medie Negrelli",45.896365,11.043286,0
3872,"Rovereto-Via S.Maria. 66",45.884662,11.042891,0
4020,"Vaneze-Sp 85 Civ. 20",46.052109,11.073303,0
4066,"Mattarello-Via Nazionale",46.012407,11.130568,0
4084,"Rovereto C.So Rosmini 61",45.890963,11.037817,0
4265,"Lizzana-Rovercenter",45.864119,11.028967,0
4813,"Rovereto-Stazione Trenitalia",45.89182,11.034136,0
5151,"Rovereto-Fermata Trenitalia",45.890326,11.03385,0
5483,"Mattarello-Via Catoni",46.003128,11.126824,0
5625,"Mori di Fronte Mc Donalds",45.860462,11.001507,0
5201,"Zona Industriale'Luxottica' R",45.865303,11.018506,0
5708,"Trento-Via Segantini",46.075474,11.122352,0
311,"Conci De Riccabona",46.039406,11.140409,1
315,"Degasperi Anna Frank",46.051099,11.123052,1
322,"Dei Mille 'Villa Igea'",46.06249,11.127802,1
326,"Martignano Costiole",46.092513,11.132436,2
330,"Dos Trento Apuleio",46.073022,11.114843,1
340,"Ss 349 Pozzata",46.039534,11.14407,2
2240,"Maso Mortal",45.882809,11.079507,2
344,"Gerola 'Ospedale S.Chiara'",46.058389,11.133087,1
348,"Giusti Pascoli",46.060364,11.118908,1
351,"Gocciadoro 'Poliambulatori'",46.055618,11.132178,1
360,"Maccani 'Rotatoria'",46.082766,11.114831,1
364,"Maccani Campotrentino",46.08549,11.112579,2
369,"Maccani 'Polizia Locale'",46.090562,11.108259,1
373,"Manci Galasso",46.069881,11.12247,2
2391,"Via Rovigo",45.880485,11.03814,0
376,"Villazzano Marzola",46.046672,11.148788,2
377,"Villazzano Marzola",46.046549,11.149058,2
382,"Menguzzato Al Casteller",46.038222,11.134508,2
390,"Quattro Strade",46.07615,11.128131,0
395,"Muredei Benevoli",46.053728,11.118206,2
400,"Pasubio Adamello",46.06003,11.133381,1
404,"Rosmini 'Cimitero' / Muse",46.064185,11.119431,1
407,"Rosmini S.Maria Maggiore",46.0681,11.118642,1
411,"S.Pietro Degli Orbi",46.069404,11.124511,2
1366,"Via Cavour",45.88709,11.03824,0
415,"S.Pio X Benevoli",46.053806,11.120736,1
421,"Segantini Dogana",46.074211,11.12146,2
428,"Gardolo Soprasasso",46.105677,11.107554,2
431,"Parco Del Dos Trent",46.073381,11.107449,0
435,"Vela S.Giorgio",46.076202,11.105081,2
1326,"Pomarolo Chiesa",45.926469,11.045297,2
1329,"Pomarolo Via Degasperi",45.926217,11.042436,2
1425,"Villa Lagarina Via Alpini",45.91475,11.033819,2
1429,"Villa Lagarina V. Zandonai",45.912508,11.031747,2
2215,"Brancolino",45.902185,11.020153,2
2218,"Brancolino Sp.90",45.900853,11.02041,1
2223,"Castellano Centro",45.923356,11.007702,2
2229,"Folaso",45.887066,11.001261,2
2233,"Isera Cimitero",45.888588,11.011862,2
2255,"Nogaredo Municipio",45.912062,11.023051,2
2260,"Nogaredo Scuole Elementari",45.90932,11.022346,2
2271,"Pedersano Centro",45.918006,11.019786,2
1069,"Ponte Oltra",46.060534,11.763205,0
1594,"Ponte Cimego",45.915356,10.621384,0
2316,"Ss. 240-Mariani",45.870294,11.016687,0
2719,"Ruffre'",46.416263,11.176873,0
449,"Largo Prati",46.057417,11.11743,0
453,"Venezia 'Corallo'",46.069162,11.136348,1
456,"Zambra 'Ist. D'arte Vittoria'",46.092337,11.116358,1
461,"Verona 'Questura'",46.047815,11.130991,2
466,"3 Nov. 'Ponte Cavalleggeri'",46.059292,11.12667,1
469,"Vigo Meano Piazza Stainer",46.131626,11.134225,1
473,"Villazzano Villa Belfonte",46.043515,11.149665,1
477,"Villamontagna P.Predaroi",46.086139,11.160226,1
481,"Villazzano 'Chiesa'",46.049549,11.144079,2
488,"Conci 'Villazzano 3'",46.041088,11.140552,1
493,"Spini 'Officine'",46.118172,11.100941,2
527,"Meano 'Centro Civico'",46.126522,11.116682,1
1281,"Corso Bettini 'Mart'",45.892816,11.043904,2
1285,"Corso Rosmini Via Savioli",45.890883,11.03801,1
1289,"Corso Verona Ospedale",45.881066,11.03962,2
1291,"Via Vicenza Via Cartiera",45.887187,11.05116,2
1296,"Sp.2 Loc. Beccache'",45.882087,11.071643,2
1305,"Marco Via Pinera",45.847568,11.011566,2
1316,"Piazzale S.Maria Ospedale",45.883616,11.040937,1
1323,"Piazza S.Marco",45.888708,11.045294,0
1334,"Sp.2 Loc. Beccache'",45.882063,11.071733,2
1343,"Lizzana Cristo",45.866956,11.030832,2
1358,"Via Benacense Via Fiume",45.881993,11.038495,1
1363,"Via Cavour Via Riva",45.887219,11.034767,1
1370,"Via Dante Mon. All'alpino",45.886729,11.040387,2
1374,"Viale Dei Colli S.Biagio",45.890313,11.050118,2
1380,"Via Giovannini",45.907026,11.043154,0
1385,"Via Balista",45.894967,11.032631,0
1389,"Via Paoli Piazza 25 Aprile",45.893116,11.040065,1
2274,"Ravazzone",45.860012,10.991223,2
2285,"Sp.20 S.Sisinio",45.924877,11.021092,2
2303,"Tierno Via Terra Nera",45.847758,10.983715,1
2333,"Villa Lagarina Via Magrè",45.917709,11.033243,1
2336,"Villa Lagarina V.Segantini",45.91624,11.034113,1
2341,"Volano Via Europa",45.916494,11.057177,2
2355,"Pomarolo Via Rossaro",45.92582,11.04749,2
2362,"Lago di Cei Albergo",45.948219,11.015835,2
2363,"Sp.20 Maso Tiaf",45.936511,11.008597,2
2365,"Castellano Centro",45.923278,11.007616,2
2370,"Lago di Cei",45.951042,11.023398,2
1702,"Pregasina",45.851215,10.824947,0
2739,"Bozzana",46.388715,10.98865,0
1404,"Piazzale Orsi Ist. Veronesi",45.891328,11.034569,1
1409,"Via Unione Scuole Degasperi",45.885564,11.02317,2
1414,"Viale Trento Via Brione",45.90177,11.041487,1
1417,"Viale Trento Via Salvetti",45.906689,11.04021,2
1421,"Viale Vittoria Fucine",45.886286,11.029023,1
1437,"Viale Caproni 'Sony'",45.865476,11.010393,2
1440,"Viale Dell'industria",45.871736,11.020685,0
1442,"Viale Del Lavoro 'Aticarta'",45.866718,11.023454,2
1445,"Via Sighele Stazione Fs",45.891265,11.035482,1
2120,"Zambra 'Top Center'",46.091075,11.117774,1
2265,"Noriglio Cassa Rurale",45.883717,11.069234,2
2281,"S.Ilario Iti",45.910932,11.04203,2
2294,"Ss.240 'Millennium Nord'",45.870588,11.017358,2
2300,"Senter",45.877509,11.089407,0
2310,"Via Driopozzo Bivio Solatrix",45.89872,11.044443,2
2330,"Viale Caproni 'Chizzola'",45.868365,11.02247,2
2376,"Grazioli 'Osp. S.Camillo'",46.065677,11.132418,2
2398,"Via Della Cisterna",45.867981,11.03482,0
2406,"Ghiaie 'Giardinerie'",46.052906,11.117029,1
2410,"Parcheggio Monte Baldo",46.057138,11.113787,0
2422,"Roncafort 'Asilo'",46.10073,11.10179,1
2426,"S.Lorenzo 'Funivia'",46.070304,11.117242,1
2435,"Brescia 'Ca Dei Gai'",46.073516,11.105355,2
2551,"Mori Via Del Garda",45.851921,10.972036,2
2686,"Isera P.Zza S.Vincenzo-E.",45.885396,11.00929,2
2747,"Lenzima Via Della Vittoria",45.877342,10.991623,2
2804,"Villa Lagarina 'Al Ponte'",45.913238,11.037377,2
2812,"Castellano Don Zanolli",45.926062,11.005714,2
2836,"Calliano Via Marcolini",45.931764,11.092775,2
2840,"Nomi Cantina Sociale",45.928339,11.07461,2
2859,"Ss.12 Campagnole",45.928851,11.093153,2
2619,"Scanna",46.396204,11.02574,0
2723,"Passo Mendola",46.416009,11.208159,0
2735,"Seio",46.416811,11.126723,0
2744,"Vervo'",46.307291,11.118663,0
2751,"Mollaro-Parcheggio Ftm",46.294247,11.067977,0
2761,"Hacleri-Sp 135 Km. 8.8",46.113461,11.324593,0
2763,"Ala-Albergo Città di Ala",45.754163,10.997392,0
2770,"Barco Zechinati",46.000894,11.32978,0
2776,"Cles-Piazza Fiera",46.367852,11.034999,0
5473,"Sanzeno Civ. 61",46.368681,11.078431,0
1605,"Storo",45.848809,10.578087,0
2446,"Ghiaie 'Zona Ind.Le Ftm'",46.119113,11.105302,2
2453,"Palazzine Maso S.Antonio",46.115041,11.101844,2
2458,"Gardolo Castel di Gardolo",46.113885,11.111224,2
2867,"Viale Zugna 48",45.884382,11.049309,0
165,"Piazza di Fiera",46.065221,11.123271,0
2474,"Via Vallunga Bivio M. Pipel",45.895243,11.05206,2
2482,"Viale Dei Colli Via Vallunga",45.891342,11.049818,2
2488,"Pranzelores 'Top Center'",46.089853,11.118524,1
2494,"Corso Verona Via Cainelli",45.87727,11.035963,2
2500,"Ss 45 'Scala'",46.077367,11.099792,2
2505,"Cognola 'Chiesa'",46.076326,11.141355,1
2510,"Sp.2 Bivio Per Cisterna",45.881281,11.075365,2
2520,"Verdi Inama",46.066496,11.117759,1
2525,"Eremo",46.068317,11.178756,0
2537,"Verona 'Big Center'",46.045763,11.130821,1
2542,"Via di Vittorio",45.863141,11.020959,0
2673,"Giardini Collina",46.068141,11.129681,2
2710,"Via Unione Scuole Filzi",45.888721,11.024219,1
2764,"Gard.D.Mezzo Maso Garbini",46.114494,11.116634,2
2783,"Spini 'Pal. Giano'",46.121743,11.094961,1
2786,"Spini Masadori",46.119922,11.0965,1
2789,"Spini Bregenz",46.117016,11.092579,2
2792,"Interporto 'Interbrennero'",46.110805,11.090865,1
2795,"Interporto 'Logistica 2'",46.106413,11.092253,1
2798,"Interporto 'Fercam'",46.108308,11.091777,1
2904,"Villa Lagarina 'Poste'",45.914403,11.033162,2
2909,"Besenello",45.941818,11.109937,2
2930,"Porte Via Miravalle",45.879937,11.047141,2
2934,"Porte Via Miravalle",45.879916,11.046859,2
3004,"Castellano Don Zan. Park",45.926214,11.007337,2
7,"Laghetti-Laag",46.271948,11.238975,0
10,"Castello di F.-Via Stazione",46.282069,11.428969,0
14,"Cavalese-P.Zza Partigiani",46.29189,11.455508,0
19,"Tesero",46.288877,11.510913,0
22,"Ziano di Fiemme",46.286634,11.559677,0
31,"Moena-Caserma Carabinieri",46.369532,11.652359,0
1277,"Cinte Tesino Bivio",46.067453,11.607539,0
37,"Vigo di Fassa",46.421404,11.676292,0
40,"Pera di Fassa",46.435925,11.690519,0
44,"Fontanazzo",46.469686,11.727819,0
2792,"Dro-Ss.45-Hotel Eden",45.970063,10.923463,0
2796,"Canale di Pergine V.",46.043635,11.227039,0
2801,"Montesover-Tornante",46.219136,11.325826,0
2845,"Via 13 Settembre",45.908302,11.041664,0
1655,"Stenico-Dologno",46.053473,10.873476,0
4854,"Saresin",46.206658,11.938458,0
2850,"Marco Parco Ex De Bellat",45.843535,11.007471,2
2854,"Mori Stazione",45.860969,11.001673,2
2864,"Viale Schio",45.88369,11.043651,0
2786,"S.Giacomo di Brentonico",45.798773,10.919616,0
2872,"Rsa S.Bartolomeo",46.048672,11.134149,0
2876,"Via Fornaci 'Dana'",45.854456,11.004106,2
2886,"Via Vicenza Via Asiago",45.885484,11.059421,2
2897,"Sp.23 'Nero Cubo'",45.855421,11.002179,2
2900,"Monte Ghello",45.887462,11.066109,2
2923,"Cadine Della Fornas",46.087159,11.069039,2
2926,"Borgo S.Caterina",45.889827,11.039443,0
2938,"Via Fornaci Via Pineta",45.86477,11.005451,2
2946,"Mattarello Rozola",46.012703,11.131963,2
2949,"Mattarello 'Parco'",46.008471,11.13159,2
2953,"Mattarello Ex Stazione",46.007524,11.12676,2
2962,"Via Brigata Mantova",45.868215,11.036161,0
2966,"Via Tonetti",45.90285,11.037786,0
2970,"Vigo Meano Don Perugini",46.133144,11.133835,2
46,"Canazei-Hotel Caminetto",46.479175,11.759202,0
50,"Canazei-Difr.Hotel Faloria",46.471558,11.77782,0
60,"Alba di Canazei-Fun.Ciampac",46.458434,11.789039,0
65,"Canazei-Hotel Caminetto",46.479389,11.759638,0
68,"Pozza di Fassa",46.427925,11.683281,0
72,"Salorno-Salurn",46.240218,11.20719,0
83,"Lavis-Via Bresadola",46.143938,11.112489,0
87,"Mosana",46.1544,11.137231,0
92,"Ville di Giovo-Maso Roncador",46.162212,11.140586,0
97,"Lisignago",46.160168,11.187701,0
100,"Cembra",46.174956,11.221714,0
102,"Cembra-Loc.Molini",46.180271,11.228397,0
106,"Faver-Loc. Portegnago",46.197032,11.246634,0
111,"Capriana-Case Nuove",46.261033,11.339913,0
115,"Stramentizzo Bivio",46.266504,11.406487,0
123,"Molina di Fiemme-Via Segherie",46.272409,11.424124,0
132,"Lavis-Via Cembra 16",46.142757,11.105023,0
137,"Casatta di Valfloriana",46.250381,11.344532,0
141,"Palu' di Sicina",46.256917,11.363017,0
541,"Montesover-Carrozzeria",46.215296,11.328103,0
551,"Sorni",46.173837,11.120538,0
560,"Masi-Campo Sportivo",46.283459,11.480809,0
1945,"Bivio Nocchi",45.919068,11.198434,0
2986,"Via Circonvallazione",45.883391,11.03863,0
2990,"Parcheggio Via Lidorno",46.033496,11.125867,0
2,"Trento-Solteri Bivio Ss.12",46.084046,11.119732,0
562,"Masi di Cavalese",46.28328,11.485357,0
564,"Marco di Cavalese",46.290351,11.476383,0
568,"Carano",46.291789,11.438794,0
572,"Villaggio Veronza-Bv.Pizzeria",46.287843,11.428652,0
582,"Madrano-Belvedere",46.084668,11.210388,0
588,"Tressilla",46.128796,11.237227,0
594,"Piazze Bivio",46.155593,11.278561,0
598,"Bedollo",46.164985,11.301342,0
603,"Brusago-Civ. 4",46.186573,11.329595,0
607,"Bedollo",46.164986,11.301527,0
610,"Pinè Bivio",46.081958,11.196441,0
618,"Torchio",46.090705,11.197409,0
622,"Bampi Bivio",46.093747,11.190641,0
629,"Bosco di Civezzano",46.111066,11.170991,0
630,"Bosco-Loc. Canova",46.113877,11.175541,0
637,"Fornace-Via Dei Pradolini 4",46.120275,11.208422,0
641,"Albiano-Via Roma Civ.35",46.143814,11.198966,0
647,"Lases-Loc. Ronc Del Mela",46.149542,11.221571,0
651,"Sevignano",46.170787,11.247119,0
654,"Scancio di Segonzano-Snack Bar",46.19189,11.259595,0
660,"Sover-Loc. Mezauno",46.231131,11.318876,0
666,"Loc. Melae",46.263127,11.397791,0
675,"Pergine-Via Baratieri",46.063947,11.242777,0
1714,"Lenzumo",45.912386,10.726404,0
678,"Zivignago-Cons.S.Orsola",46.070153,11.257161,0
684,"Canezza-Maso Dràzeri",46.084557,11.277669,0
688,"S.Orsola-Loc.Mantovani",46.095743,11.289216,0
693,"S.Orsola-Loc.Donadi",46.111674,11.306197,0
696,"Marcheli-Bivio Borti E Cont",46.117554,11.310066,0
700,"Palù Del F.-Loc. Sigismondi",46.129804,11.344495,0
702,"Palu' Del Fersina",46.129731,11.352867,0
712,"P.So S.Pellegrino-Segg.Cost.",46.378743,11.784393,0
715,"P.So S.Pellegrino-Fun.C.Mar.",46.379108,11.802051,0
720,"Falcade-Via Serafini",46.35506,11.866761,0
734,"Padergnone",46.062089,10.988852,0
739,"Sarche-Maso Caffaro",46.046073,10.945217,0
3959,"Tesero-Via Roma",46.289215,11.502906,0
742,"Ponte Arche-Autost.",46.035587,10.873617,0
748,"Ponte Ragoli-Ss.237-Dir. Saone",46.049764,10.785625,0
754,"Zuclo Bivio-Segheria Tonello",46.038713,10.744446,0
757,"Tione-Autostazione",46.033132,10.726114,0
762,"Iavrè-Artigianato",46.070709,10.713789,0
936,"Canezza-Loc. Pinterhof",46.078874,11.283443,0
765,"Vigo Rendena-Biv.Val S.Val.",46.082037,10.722143,0
769,"Spiazzo Rendena",46.103133,10.737692,0
772,"Strembo-Bivio Bocenago",46.118283,10.752807,0
670,"Scancio di Segonzano-Snack Bar",46.191607,11.258893,0
781,"Carisolo-Pinemonte Basso",46.188013,10.772362,0
784,"S.Antonio di M.-Vigili Fuoco",46.190111,10.78614,0
807,"Madonna di C.-Loc.Fontanella",46.208587,10.819861,0
811,"S.Antonio di M.-Vigili Fuoco",46.19003,10.785593,0
816,"Giustino-Hotel Royal",46.153492,10.766254,0
821,"Borzago",46.098884,10.73479,0
824,"Vigo Rendena",46.078901,10.719153,0
829,"Tione-Via Circonvallaz.",46.040014,10.727518,0
832,"Covelo-Via N.Pooli",46.096643,11.018074,0
833,"Covelo",46.09829,11.019005,0
836,"Monte Terlago-P.Zza",46.109656,11.037895,0
851,"Zuclo Bivio-Segh. Tonello",46.03851,10.744194,0
855,"Ragoli-Pez",46.05094,10.780061,0
868,"Tione-Bar Arno'",46.034257,10.733257,0
890,"Montagne Cort",46.050723,10.753627,0
896,"Fraveggio Bivio",46.078617,10.993865,0
901,"Margone",46.068219,10.963864,0
909,"Borgo Valsugana-C.Intermodale",46.05246,11.463496,0
910,"Borgo Vals.-Ospedale",46.056441,11.464242,0
939,"Levico Terme-Autostazione",46.010161,11.298858,0
2808,"Pergolese-V.Dell'agricoltura",46.032987,10.959916,0
1031,"Frassilongo-Maso Doss Hecchi",46.092488,11.302722,0
2811,"Palù Del F.-Loc.Tolar Civ. 69",46.130616,11.357967,0
2817,"Canal S.Bovo-Loc. Giaroni",46.161766,11.71431,0
2827,"Mezzomonte-Az. Agricola",45.919873,11.141608,0
2830,"Fai Paganella-A.Stella Alpina",46.180891,11.071658,0
2838,"Coredo-Distributore Repsol",46.347121,11.079379,0
2847,"S.Michele A/Adige",46.193212,11.13322,0
2899,"Trento Nord",46.095106,11.116921,0
2941,"S.Michele A/A.-Ist. Agrario",46.194089,11.135444,0
3039,"Castelir di Bellamonte",46.312766,11.687638,0
3155,"Pranzo Via Dei Castagni",45.924838,10.817236,0
877,"Viote",46.021402,11.041172,0
1628,"Agrone",45.955368,10.650607,0
881,"Trento-Loc.Conotter",46.07676,11.099989,0
912,"Castelnuovo-Malerba",46.053807,11.481145,0
915,"Agnedo-Incrocio",46.051,11.52501,0
918,"Agnedo-Via Per Ospedaletto 8",46.046836,11.542288,0
922,"Ospedaletto-Via Pradenella",46.03387,11.573069,0
928,"Belvederi di Grigno",46.001081,11.665287,0
932,"Primolano-Alb.Giardino",45.965203,11.70706,0
943,"Regnana Biv.-Dopo A.Costalta",46.159984,11.300172,0
3244,"Bocenago-Paese",46.120707,10.760843,0
947,"Olle-Trattoria Alla Croce",46.04159,11.460248,0
950,"Pergine V.-Via Rosmini 19",46.060945,11.232468,0
954,"Maso Colpi Bivio Via Tiglio",45.997669,11.318198,0
966,"Levico Terme-Cimitero",46.008855,11.316263,0
970,"Novaledo-Via Roati",46.027411,11.374066,0
972,"Marter-Loc.Angeli",46.030565,11.388362,0
975,"Roncegno Terme",46.049671,11.411174,0
978,"Scurelle",46.065058,11.506674,0
981,"Strigno-Bivio Ivano Fracena",46.061558,11.523764,0
988,"Bieno-Via Roma",46.081287,11.55899,0
992,"Pieve Tesino-Case Itea",46.068561,11.605522,0
998,"Pieve Tesino",46.068073,11.609935,0
1001,"Castello T.-Via Baili",46.06429,11.62888,0
1711,"Bezzecca-Scuole",45.894714,10.720104,0
1004,"Pergine Via Al Lago",46.054929,11.235858,0
1008,"Calceranica-Bar Floris",46.006556,11.241153,0
1011,"Caldonazzo",45.993374,11.260641,0
1014,"Levico T.-Rist. Brenta",46.006387,11.291849,0
1018,"Calceranica Al Lago",46.004026,11.243466,0
1021,"Pergine V.-Via Al Lago Civ 17",46.053382,11.235382,0
2157,"Tesero-Loc. Pesa",46.305819,11.504988,0
1028,"Pergine V.",46.061538,11.237586,0
1712,"Locca",45.900381,10.725642,0
1037,"Pergine V.-Via Regensburger",46.064432,11.242028,0
1038,"Pergine V.-V.Regensb/Bellini",46.067887,11.23969,0
1042,"Vigalzano-Via Del Sgualdi",46.07979,11.226832,0
1046,"Madrano-Alb.Madrano",46.08556,11.214964,0
1050,"Impianti Tognola",46.254704,11.800066,0
1055,"Fiera di P. Via Roma 2",46.177663,11.831366,0
1059,"Mezzano-Albergo Salgetti",46.156242,11.814595,0
1595,"Cimego",45.911927,10.6144,0
4003,"Romeno-Civ. 38",46.399287,11.127024,0
1079,"Feltre-Staz. Fs",46.012749,11.910851,0
1085,"Masi di Imer",46.145367,11.786083,0
1091,"Impianti Tognola",46.254564,11.800643,0
1094,"Canal S.Bovo-Somprà",46.159542,11.72758,0
1098,"Ronco-Bivio Gasperoi",46.141878,11.71719,0
1103,"Levico Terme-Staz. Fs",46.005879,11.305009,0
1107,"Susa'",46.051111,11.223539,0
1116,"Acquaviva-Pizzeria",45.980673,11.116452,0
1119,"Besenello-Ferm. Sud",45.937109,11.110678,0
1132,"Mori-Stazione F.S.",45.861909,11.000618,0
1137,"Mori-Difr.Discoteca Fanum",45.855035,10.946812,0
1145,"Riva Via D.Chiesa",45.888706,10.846075,0
3167,"P.Arche-Sc.Medie",46.03562,10.870542,0
1151,"Arco S.Caterina Eurospar",45.904792,10.86422,0
1157,"Bolognano Bivio",45.910903,10.900309,0
1160,"Massone Case Itea",45.921813,10.899108,0
1165,"Arco S.Caterina Eurospar",45.904663,10.863891,0
1168,"Riva Del G. C.Comm. 2000",45.897765,10.852435,0
1169,"Riva D/Garda Rione Degasperi",45.894834,10.849462,0
1170,"Riva D/Garda Viale Martiri",45.887604,10.844054,0
1186,"Besenello-Ferm. Nord",45.946015,11.106023,0
1191,"Tonadico-Lisiera",46.181183,11.841123,0
1195,"Passo Cereda",46.192986,11.905223,0
1199,"Sagron",46.195002,11.943357,0
1202,"Bellamonte-H.Torretta",46.311058,11.6745,0
1206,"Bivio Malga Juribello",46.300119,11.763517,0
1210,"P.Sso Rolle-Malga Fosse",46.289455,11.79858,0
1213,"S.Martino di C.-H.Belvedere",46.264314,11.801833,0
1224,"Caoria-Ex Bar Cauriol",46.194858,11.680894,0
1229,"Bivio Prade",46.151486,11.741642,0
1234,"Zortea-Loc. Mureri",46.164872,11.757456,0
1237,"Passo Gobbera",46.148011,11.756872,0
1239,"Canal S.Bovo",46.154704,11.73304,0
1242,"Cavalese-Hotel Coronelle",46.294815,11.454263,0
1245,"Varena-Pizz. La Cantinetta",46.302821,11.454024,0
1250,"Roveda-Maso Puech Pote",46.074384,11.287907,0
1254,"Roveda-Maso Martinotti",46.071815,11.304078,0
1258,"Canezza-Rist. Al Sole",46.08011,11.275681,0
1262,"Telve-Via S.Giustina",46.072891,11.484734,0
1713,"Enguiso",45.905795,10.72922,0
1271,"Ronchi-Loc. Marchi",46.066813,11.432584,0
1462,"Marocche",45.998564,10.925295,0
1468,"Dro-Carabinieri",45.958516,10.906523,0
1472,"Roncegno Chiesa",46.049712,11.406684,0
1477,"Carano",46.292416,11.437238,0
1486,"Faida-Rauta",46.112841,11.253843,0
1493,"Canzolino-Hotel Miralago",46.082622,11.230442,0
1498,"Ferrari-Hotel Scoiattolo",46.111813,11.234198,0
1502,"Mazzanigo",46.103797,11.188919,0
1710,"Bezzecca-Vigili Del Fuoco",45.893204,10.723837,0
1509,"Vigo Lomaso",46.01321,10.869079,0
1512,"Fiavè-Caseificio",46.001943,10.846004,0
1517,"Ballino",45.965503,10.811513,0
1522,"Tenno-Rist. Alla Croce",45.918081,10.83284,0
1526,"Gavazzo",45.912491,10.840954,0
1539,"Varone Via Ballino 14",45.904369,10.842057,0
1544,"Varone Sc.Alberghiera",45.901569,10.84431,0
1549,"Fiavè-Bar Aurora",46.001313,10.841014,0
1553,"Dasindo",46.011618,10.860458,0
1556,"Campo Lomaso",46.02368,10.865724,0
1559,"Comighello",46.030953,10.851467,0
1562,"Villa di Bleggio",46.029307,10.841954,0
1565,"Marcè Bivio",46.019261,10.823814,0
1569,"Cavaione",46.02257,10.819804,0
1572,"Bivedo",46.028738,10.82665,0
1588,"Agrone",45.954529,10.650079,0
3944,"Vezzano Apt",46.075558,10.996341,0
1589,"Pieve di Bono-Tratt.Borel",45.935769,10.63906,0
1592,"Cologna di P.Bono",45.931355,10.63745,0
1593,"Cimego-Centrale Enel",45.924618,10.632708,0
1596,"Cimego Quartinago",45.910622,10.611835,0
1597,"Cimego-Bar Porte",45.904469,10.608408,0
1598,"Condino-Alb.Condino",45.891406,10.60156,0
1599,"Condino",45.889021,10.59961,0
1600,"Condino-Case Itea",45.884992,10.596494,0
1601,"Condino-Cartiere",45.880389,10.592588,0
1602,"Condino-Carpenteria",45.874623,10.588411,0
1708,"Mezzolago",45.88104,10.750447,0
3619,"Assizzi Bivio-Dir. Levico",46.051276,11.250473,0
3655,"Marter Via Nazionale 24",46.037113,11.398467,0
1578,"Breguzzo-Hotel Carlone",46.006214,10.697765,0
1584,"Lardaro",45.969381,10.660893,0
1604,"Storo-Hotel Al Melograno",45.850171,10.575247,0
1608,"Casa Rossa",45.85244,10.565998,0
1609,"Darzo-Stork Club",45.849192,10.55967,0
1610,"Darzo",45.841241,10.549702,0
1611,"Darzo-Zona Ind.Le",45.834353,10.542857,0
1631,"Cologna di P.Bono",45.931273,10.637534,0
1635,"Condino-Cartiere",45.88037,10.592622,0
1640,"Lodrone",45.829324,10.5357,0
1646,"Godenzo",46.028886,10.883224,0
1650,"Premione-Via di Pestelan",46.047643,10.880493,0
1659,"Sclemo",46.055964,10.884041,0
1663,"S.Lorenzo In Banale",46.076504,10.907305,0
1666,"Lago Nembia-Casa Enel",46.107358,10.943027,0
1673,"Lago Nembia",46.095952,10.933324,0
1675,"Tavodo-Incr.S.P.",46.06476,10.892034,0
1676,"Sclemo",46.055896,10.884206,0
3401,"Valle di Terragnolo",45.882059,11.153697,0
3494,"Brentonico-Via Calzolari",45.819109,10.956539,0
3758,"Imer-Loc. Casa Bianca 10",46.147268,11.803997,0
1677,"Sclemo-Via Dei Caputel",46.053763,10.879429,0
1680,"Stenico-Dologno",46.05348,10.873597,0
1681,"Stenico-Case Nuove",46.052287,10.860169,0
1682,"Stenico",46.051868,10.853805,0
1683,"Premione",46.048262,10.874064,0
1684,"Villa Banale",46.046301,10.887086,0
1689,"Bersone",45.944017,10.633506,0
1690,"Praso",45.949536,10.637414,0
1691,"Daone",45.947374,10.621184,0
1692,"Castelnuovo-Zanzibar",46.0602,11.490312,0
1693,"Carzano",46.069839,11.493617,0
1695,"Scurelle-Via Murazzo",46.069127,11.498027,0
5240,"Cadine Strada di Cadine 5",46.086923,11.069368,0
1696,"Strigno-Loc.Colle",46.067461,11.516074,0
1697,"Spera",46.07041,11.508857,0
1699,"Samone",46.08122,11.521945,0
1700,"Riva Del G.-Bivio Val Ledro",45.894756,10.842615,0
1701,"Pregasina Bivio",45.864433,10.812754,0
1704,"Prè",45.866333,10.788169,0
1706,"Molina di Ledro",45.871762,10.772216,0
1707,"Molina di Ledro-Lago",45.873683,10.766712,0
1709,"Pieve di Ledro",45.889221,10.730942,0
1715,"Lenzumo-Bar Taverna",45.913165,10.728461,0
1716,"Enguiso",45.906001,10.729023,0
1779,"Trento-Via S.Severino Dif. 127",46.051021,11.11159,0
1784,"Aldeno-Loc. Ciausa",45.975689,11.083537,0
1788,"Cimone-Loc. Battistoni",45.977954,11.064839,0
1993,"Serrada",45.890915,11.154072,0
1793,"Garniga Terme-Loc. Zobbio",45.990055,11.083483,0
1796,"Garniga Vecchia-Case di Sotto",46.012362,11.078792,0
1801,"Trento-Tangenziale",46.047755,11.113459,0
1807,"Trento-V. S.Francesco",46.067015,11.126396,0
1816,"V.Vattaro-Difr.Civ.10B",46.005903,11.190843,0
1820,"Bosentino-Loc.Mandola",46.000565,11.216062,0
1824,"Campregheri Bivio",45.984608,11.232636,0
1828,"Centa-Bivio M.Cioli",45.963371,11.220885,0
1832,"Nosellari-Alb. Al Bivio",45.931381,11.244896,0
1836,"Lago di Lavarone",45.933981,11.255937,0
1840,"Stengheli",45.949561,11.258659,0
1844,"Lavarone Cappella",45.936708,11.275436,0
1849,"Luserna-Sp.9",45.924891,11.317933,0
1852,"Nosellari-Alb. Al Bivio",45.931477,11.244823,0
1857,"Ischia di Pergine",46.033155,11.247724,0
1861,"Tenna-Sp 16 Al Km 4",46.017113,11.266271,0
1688,"Castel Condino",45.916322,10.602714,0
4867,"Canè",46.119116,11.260806,0
5126,"Storo-Scuola Media",45.849333,10.575288,0
1872,"Toldo-Sp 50 Km 0.2 Balanzi",45.877319,11.065784,0
1879,"Vignala",45.861926,11.082476,0
1883,"Pozza di Trambileno",45.863266,11.08527,0
1903,"S.Margherita Via Trento/Vanga",45.800294,11.023363,0
1909,"Marani-Centrale Elettrica",45.769788,11.01022,0
1915,"Vò Sinistro",45.735022,10.959229,0
1920,"Avio-Cantina Sociale",45.732037,10.93847,0
1925,"Mama D'avio",45.704726,10.92175,0
1929,"S.Leonardo",45.704662,10.93099,0
1933,"Calliano-Bivio Folgaria",45.933179,11.096306,0
3895,"Cavizzana Bivio",46.371565,10.952171,0
1901,"Marco-Zona Ind.Le",45.825549,11.010721,0
1937,"Peneri",45.918996,11.145347,0
1940,"Folgaria-Via 25 Aprile",45.918634,11.162222,0
1948,"S.Sebastiano-Sez.Cacciatori",45.925469,11.214887,0
1954,"Costa di Folgaria",45.920368,11.189059,0
1959,"Villa Lagarina-Carabinieri",45.916303,11.034064,0
1963,"Chiusole",45.92542,11.05326,0
1974,"Valduga-Prima",45.876701,11.124251,0
1979,"Piazza di Terragnolo",45.878928,11.152416,0
1985,"Baisi",45.867136,11.182109,0
1989,"Castello",45.880834,11.141527,0
1997,"Folgaria-Rotatoria",45.913038,11.178088,0
2002,"Chizzola-Sp. 90 Km 16.8",45.817738,11.003965,0
2007,"Pilcante-Capitelli",45.772609,11.001559,0
2011,"Sabbionara-Casello Autostr.",45.746871,10.976755,0
2023,"Dosso-Loc. Brentegan",45.880222,11.051101,0
2029,"Aste",45.790383,11.095312,0
2649,"Toss-Sud-Via Verdi",46.275582,11.080015,0
3981,"Primolano-Ex Staz. Fs",45.96569,11.700902,0
4009,"Cimego-Albergo Aurora",45.912809,10.619455,0
4013,"Cavedago-Albergo Olisamir",46.185905,11.032963,0
4024,"Masi D'avio Ss.12 Civ. 2",45.719509,10.940406,0
4030,"Pieve di Ledro-Via Nuova",45.890616,10.727428,0
4041,"Arco Via Marconi",45.917805,10.88516,0
4061,"Vigne Cimitero",45.919409,10.863098,0
4069,"Arco V.Cesare Battisti",45.918508,10.882411,0
4072,"Lago Cavedine-Civ. 7",46.017361,10.958937,0
4078,"Lago di Cavedine-Bv.Lastoni",46.003468,10.956083,0
3805,"Mezzocorona Scuole Medie",46.213267,11.117117,0
3809,"Mezzolombardo Via Milano",46.208839,11.093689,0
3870,"Maso Tingherla",46.067712,11.314825,0
3916,"Lausen Polo Scolastico",46.151269,11.734022,0
3951,"Lausen Loc. Pradel",46.149687,11.738813,0
4083,"Staineri-Dir. S.Anna",45.797302,11.093487,0
4146,"Mezzomonte Civ. 23-Fontana",45.918043,11.134534,0
4149,"Storo-Via Sette Civ. 8",45.848472,10.574439,0
4156,"S.Francesco-Maso Prigheli",46.105438,11.314606,0
4329,"S.Chiara-Staz. Fs",46.054385,11.13544,0
2591,"Cles Ferrovia",46.364542,11.038895,0
4165,"Molina di Fiemme-Via Cembra 47",46.268508,11.410247,0
4194,"Terlago Via Per Vezzano 9",46.099436,11.032602,0
4195,"Dietrobeseno-Chiesetta",45.925137,11.120464,0
4199,"Credai",46.342544,11.127381,0
4221,"Peio Area Faunistica",46.358569,10.666184,0
4233,"Flavon Nord",46.301834,11.028059,0
4252,"Castello di F. Nucleo Stazione",46.287189,11.421064,0
2034,"Obra di Vallarsa",45.764916,11.116504,0
2061,"Pozzacchio Bivio",45.844983,11.074256,0
2064,"Zocchio",45.809064,11.096515,0
2067,"S.Anna di Vallarsa",45.794758,11.096737,0
2072,"Raossi-Loc.Corte",45.782482,11.114263,0
2085,"Speccheri",45.765508,11.129886,0
2100,"Ronzo Chienis-Via Longa",45.888625,10.948741,0
2104,"Manzano.",45.866524,10.953423,0
2108,"Loppio-Bivio",45.85577,10.932164,0
2126,"Castione",45.837801,10.953532,0
2130,"Fontechel-Bivio S.Giacomo",45.814087,10.945968,0
2135,"Brentonico-Mobil.Zoller",45.822387,10.962756,0
2141,"Crosano-Fam. Coop.",45.820049,10.975655,0
2174,"Civezzano-Quadrivio",46.089186,11.185616,0
2210,"Visintainer Bivio",46.032037,11.267098,0
2212,"Ivano Fracena",46.057114,11.528163,0
2216,"Lochere Bivio Quaere",45.991197,11.300217,0
2227,"Fiera di Primiero",46.172235,11.823741,0
2230,"Transacqua-Albergo Belvedere",46.177762,11.837163,0
2236,"S.Caterina di Pergine",46.017255,11.227013,0
2256,"Strigno-Via Roma",46.063333,11.523678,0
2259,"Viarago-Via Montegian",46.079285,11.259876,0
2271,"Cavrasto Itea",46.018633,10.818609,0
2278,"Vigo Cavedine-Sp84",45.977989,10.976708,0
2286,"Enguiso Via Del Bo' Civ. 2",45.909557,10.728931,0
2289,"Lodrone-Hotel Castel Lodrone",45.830957,10.539451,0
2293,"Molveno-Cimitero",46.141389,10.965587,0
2297,"S.Alessandro",45.888068,10.862062,0
2253,"Calvola",45.92649,10.831529,0
4217,"Cles-Ex Bentivoglio",46.358211,11.037125,0
4237,"Maso Part-Magazzino S.O.R.",46.188422,11.106183,0
4245,"Seio Centro Sportivo Verde",46.411721,11.118516,0
2300,"S.Alessandro Cartiera",45.887068,10.855456,0
2304,"S.Giorgio Zona Artigianale",45.904914,10.874925,0
168,"Piazza Vicenza",46.062292,11.132772,0
2309,"Varone Via Venezia/Sega",45.908163,10.845083,0
2314,"Riva Del G.-Via D. Chiesa",45.888587,10.846175,0
2317,"Obra di Vallarsa Civ. 13",45.76671,11.114411,0
2331,"Loc.Cave di Corne'-Loc.Saiori",45.809262,10.981073,0
2545,"Genzianella",46.151,10.980267,0
4115,"Trento-Via Zambra-Ist.Arte",46.09236,11.116454,0
4179,"Rov.Z.Ind. 'Viale Industria'",45.871712,11.020613,0
4228,"Rovereto Z.Ind.V.Di Vittorio34",45.863112,11.020759,0
4262,"Rovereto-Parco Ferrari.",45.877911,11.033332,0
2267,"Patone",45.902767,11.000423,0
2244,"Rovereto-C.Rosmini-Monumento",45.890842,11.043033,0
2327,"Ss.349 Al Km. 15",45.989043,11.222359,0
2336,"Ronzo Chienis-Via Bordala",45.892389,10.953621,0
2346,"Pomarolo-Via Del Pionte",45.925171,11.048059,0
2362,"Levico T.-Inc. Via Delle Alte",46.017559,11.341849,0
2367,"Villa-Solo Dir. Strigno Fs",46.056889,11.519595,0
2376,"Cavalese-Ospedale",46.289132,11.454838,0
2387,"Magras-Bivio",46.360122,10.912466,0
2391,"Pracorno Bivio Pozze",46.378808,10.869665,0
2396,"Piazzola Bivio",46.406018,10.828573,0
2401,"Piazzola",46.410436,10.817919,0
2406,"Somrabbi",46.410071,10.800285,0
2409,"Rabbi Bagni",46.40762,10.808739,0
2415,"Monclassico",46.333268,10.888506,0
2419,"Località Bonetei",46.320999,10.872238,0
2424,"Genziana",46.260118,10.854862,0
2430,"Claiano Bivio",46.312711,10.776897,0
2434,"Castello di Pellizzano",46.32175,10.7744,0
2440,"Dimaro-Ponte",46.327957,10.870296,0
2441,"Deggiano Bivio",46.323839,10.851495,0
2445,"Piano di Commezzadura",46.320439,10.825419,0
2454,"Fucine",46.311165,10.731621,0
2457,"Vermiglio",46.296726,10.689145,0
2462,"Passo Tonale-Locatori",46.261366,10.59441,0
2479,"Peio-Campeggio Val di Sole",46.356724,10.679113,0
2512,"Mezzocorona-Borg.",46.214948,11.118695,0
2516,"Roverè Della Luna-Sud",46.246991,11.164688,0
2519,"Mezzocorona Ferrovia",46.206335,11.127415,0
2526,"Faedo-Via Case Sparse. 9",46.191841,11.155681,0
2531,"Mezzolombardo-Nord",46.216896,11.0872,0
2535,"Castel Belfort",46.204621,11.040809,0
2539,"Cavedago Maso Canton",46.185517,11.038547,0
2343,"Masi di Vigo Cavedine",45.965319,10.973622,0
2541,"Cavedago-Cimitero",46.185023,11.021294,0
2550,"Maso Daldoss",46.181931,11.020559,0
2555,"Fai Paganella-Miravalle",46.175485,11.058938,0
2576,"Nave S.Felice",46.166862,11.113223,0
2580,"Mezzocorona Borgata",46.214118,11.118809,0
2586,"Mollaro",46.294617,11.068172,0
4275,"S.Margherita-Via Trento",45.793543,11.022899,0
4280,"Marani-Centrale Elettrica",45.769911,11.010405,0
4285,"Sfruz-Via Smarano 16",46.339372,11.114523,0
5922,"Gosaldo",46.229015,11.95729,0
2596,"Cassana Ferrovia",46.375769,10.960513,0
2600,"Male' Ferrovia",46.35354,10.916942,0
2606,"Daolasa Ferrovia",46.319514,10.836164,0
2614,"Piano Commezzadura Ftm",46.317448,10.826353,0
2623,"Baselga di Bresimo",46.415259,10.985103,0
2628,"Marcena",46.441917,11.017475,0
2633,"Marcena Du Park",46.445771,11.013295,0
2637,"Lanza di Rumo",46.45475,11.01245,0
2645,"Vigo di Ton",46.265372,11.086167,0
2658,"Maso Tabarelli",46.182694,11.105639,0
2662,"Denno Magazzino",46.266671,11.055952,0
2667,"Cloz Sud",46.416351,11.084548,0
4972,"Fraveggio Vernisi",46.080553,10.995849,0
2673,"Fondo-Piazza S.Giovanni",46.439416,11.135808,0
2679,"Terres",46.309982,11.022795,0
2686,"Smarano",46.341949,11.107755,0
2696,"Lover",46.247526,11.024542,0
2701,"Palu' di G.-C.Polisportivo",46.159422,11.14357,0
2706,"Salter-Nord",46.381139,11.107306,0
2710,"Sarnonico",46.41862,11.140698,0
2715,"Ronzone",46.424183,11.151458,0
4292,"Canal S.Bovo Loc.Al Lago",46.167103,11.710155,0
4302,"Folgaria-Palasport",45.913508,11.173611,0
4308,"Smarano Via Schwarz",46.345071,11.111494,0
4314,"Pra Da Lac",45.894612,10.962039,0
4324,"Calceranica-Staz. Fs",46.00727,11.240536,0
4338,"Campi",45.911134,10.811283,0
4346,"Pergine-Via Dell'angi",46.049161,11.234423,0
4373,"Pergine-Via Marconi 195",46.067619,11.250116,0
4388,"Levico Terme-C.So Centrale 15",46.008563,11.303584,0
4391,"Ponte Arche-Via Ballino",46.031286,10.868637,0
4413,"Castello di Fiemme Via Roma",46.285237,11.438522,0
2243,"Molina",45.855439,10.986616,2
4295,"Siror-Bivio Loc. Zocaril",46.204414,11.818547,0
4333,"Prade Via Villanuova 1",46.157067,11.742961,0
4405,"Vigo di Ton Via S.Margherita",46.242208,11.062926,0
4426,"Rovere' D/Luna-Trentinalatte",46.252438,11.18467,0
4437,"Pera di Fassa-Seg.Vaiolet",46.438802,11.692741,0
4446,"Pian Del Vescovo",46.034556,11.755321,0
4452,"Tomaselli Incr. Via Arcevenna",46.070403,11.52431,0
4267,"Marco Via Ii Novembre 30",45.847344,11.011481,0
4271,"Marco-Zona Ind.Le",45.825731,11.011088,0
4460,"Rovereto 'Liceo Rosmini'",45.895066,11.043407,0
4495,"Pergine-Via Del Mani 5",46.067317,11.251306,0
4516,"Pergine-V.Padova",46.05371,11.242957,0
4529,"Maso Posser",46.026158,11.219088,0
4678,"Vervo'-Scuola Materna",46.307456,11.121384,0
215,"Povo Salé",46.062029,11.151722,1
4695,"Segno-V.Nazionaletrentingrana",46.299073,11.0696,0
4701,"Terres Loc. Tresenga",46.320236,11.014463,0
4709,"Pergine-V.Marconi Itea",46.066114,11.246563,0
4726,"Ronchi di Ala",45.738932,11.065749,0
209,"Romagnano Sud",46.012857,11.105449,2
4735,"Riva Del G Vle Dante Alighieri",45.886255,10.844525,0
4739,"Brione Campeggio",45.881511,10.861791,0
4742,"Riva V.Rovereto/Pascoli",45.885012,10.849033,0
4746,"Arco Via Mantova Dif.Cimitero",45.911738,10.881409,0
4783,"Anfo",45.76624,10.492104,0
4793,"Facendi V.S.Antonio-Capitello",46.22146,11.317781,0
4798,"Costasavina Via S.Martino 27",46.060818,11.224666,0
4805,"Segno Via Sonora Civ. 34",46.304725,11.07206,0
4825,"Lavenone-Via Nazionale",45.724764,10.428774,0
5797,"Pavillo.",46.331334,11.040788,0
4826,"Lavenone-Zona Industriale",45.731256,10.434312,0
4829,"Anfo-Locanda Loc. S.Antonio",45.799373,10.503631,0
4830,"Loc. San Giacomo'Pizzeria'",45.808932,10.509783,0
4831,"Ponte Caffaro-Via Caduti",45.81987,10.524535,0
4832,"Ponte Caffaro-Via Caduti 214",45.825015,10.53016,0
4835,"Loc. San Giacomo",45.813054,10.515905,0
4844,"Taio Via Roma. 59 E 62",46.317107,11.069215,0
4845,"Taio Via Roma. 122",46.315062,11.069839,0
4847,"S.Barbara",45.896161,10.940914,0
4853,"Gosaldo",46.221615,11.954571,0
4533,"Valcanover 'Ex Lanterna'",46.033103,11.229407,0
4541,"Susa'-Via Dei Ciliegi",46.047837,11.218768,0
4666,"Moena-Via Lowy 14-16",46.375484,11.65783,0
4720,"Malè Scuola Elementare",46.351617,10.91512,0
4852,"Villini-Via Mendola 5",46.417827,11.195583,0
4861,"Premione-Via Alla Closura",46.048034,10.871479,0
4863,"Preghena-Sp 68 Bivio",46.407458,11.011754,0
4865,"Croviana-Via Nazionale 174",46.341182,10.900305,0
4834,"Vaneze-Via Del Lavachel",46.055447,11.072394,0
4955,"Sopramonte-Via Belina 11",46.070915,11.063184,0
4961,"Calliano Sp 49 'Cimitero'",45.936629,11.098121,0
4966,"Egna-Termeno-Trenitalia",46.319098,11.257383,0
5037,"Calceranica C.So Alpini Gmp",46.0015,11.245598,0
5038,"Levico T. Fraz. Campiello",46.018805,11.353077,0
5050,"Passo Cereda Civ 9",46.192636,11.902743,0
5051,"Samoclevo-Bivio",46.365038,10.937469,0
5053,"Termon Nord",46.270225,11.036677,0
5056,"Ziano di Fiemme",46.286801,11.559854,0
5057,"Ragoli 'Croce'",46.054826,10.78159,0
5060,"Villini Dell'alpe Via Bolzano",46.418562,11.189171,0
5063,"Coredo Via Tavon 42",46.35361,11.088088,0
5064,"Coredo Via Trento",46.347117,11.08684,0
5065,"Lavarone Civ. 61",45.939296,11.273852,0
5067,"Andalo-Bivio Priori",46.177371,11.017827,0
5075,"Castelfondo Via Dante",46.452673,11.121797,0
5082,"Strigno Via Colle Civ. 6",46.06717,11.519093,0
5144,"Torchio Bivio Cogatti",46.09101,11.196994,0
5149,"Strigno-Stazione Fs",46.051416,11.514744,0
5153,"Serravalle-Trenitalia",45.808287,11.015222,0
5183,"Tres Via Predaia",46.322014,11.096784,0
5254,"Valmorbia Inc. Dosso/Tezze",45.81736,11.094239,0
5259,"Baitoni-V. Aldo Sette Civ.1",45.812948,10.546639,0
4857,"Centa Fraz. Valle",45.964834,11.232628,0
4858,"Centa Fraz. Conci",45.97435,11.244435,0
4868,"Fiorè",46.12068,11.265439,0
4979,"Pergine-Via S.Pietro Asl",46.063213,11.244429,0
5010,"Morganti-Maso Romina",45.930745,11.224036,0
5055,"Ragoli 'Macelleria'",46.051624,10.77514,0
5059,"Male' Via Degli Alpini 2",46.353384,10.911178,0
5080,"Cogolo Polo Scolastico",46.347399,10.69684,0
5133,"Transacqua-Via Delle Fonti",46.172998,11.8293,0
5138,"Masi-Incrocio Via Zurlon",45.964407,10.976932,0
5165,"Calavino-Via Battisti Civ 20",46.040787,10.982034,0
5205,"Grigno Casearia Monti Trentini",46.006597,11.649483,0
5236,"Favrio Civ. 65",45.999626,10.852372,0
5268,"Ortise' C/O Accesso Nord Paese",46.328622,10.784462,0
5470,"Regnana Alta",46.151194,11.31071,0
5273,"Molina di F.-Via Weber/Rive",46.273244,11.422097,0
5278,"Serrada Via Pasubio",45.888655,11.153269,0
5352,"Castello-Bivio di Stavel",46.321463,10.782423,0
5394,"Massone Via Cappuccini",45.920537,10.901734,0
5402,"Carpanè-Staz. Fs",45.859998,11.660863,0
5404,"Solagna-Staz. Fs",45.815551,11.721238,0
5436,"Tassullo Strada Quattro Ville",46.339649,11.052432,0
5449,"Ampola 'Parch. Biotopo'",45.872717,10.652963,0
5452,"Tres Loc.Bonifica",46.321235,11.082244,0
5458,"Terlago Via Omigo",46.097912,11.047916,0
5460,"Hacleri-Maso Markl",46.121312,11.339035,0
5472,"Sporminore Civ. 86",46.238268,11.027413,0
5479,"Claiano Nord-Sp 140",46.316343,10.773087,0
5489,"Nogarè-Via Pinetana 2/A",46.100574,11.212098,0
5499,"Moena Ss.48-Zona Artigianale",46.36095,11.644593,0
5617,"Cloz Loc. Panugola",46.41414,11.082422,0
5648,"Telve Sp 110 Bv Via Borgo",46.064371,11.476684,0
5665,"Scurelle Via Della Palanca",46.063316,11.503596,0
5685,"Castelfondo Via Dante",46.452549,11.121688,0
5703,"Riva Del G.-Via Ardaro 43",45.891649,10.838259,0
5709,"Samone Via Nuova Inferiore",46.079414,11.523,0
5719,"Taio Via Alpini 12/14",46.321229,11.068214,0
5732,"Mezzana-Parco Giochi",46.316523,10.796707,0
5749,"Lon-Via di Castel Tonin",46.084949,10.991519,0
5756,"Ronzone",46.424247,11.151851,0
5760,"Vervo' Via Castel Vervasium",46.307589,11.121519,0
5766,"Vervo'-Via Trento Civ. 8",46.308431,11.115889,0
5804,"Cunevo",46.282901,11.039964,0
5810,"Monte Terlago Boccari",46.107772,11.033516,0
5825,"Avio-Loc.Fontana",45.719125,10.928642,0
192,"Ravina Masere",46.039165,11.111935,2
2230,"Folaso",45.887214,11.001313,2
5425,"Zortea Bar Bellavista",46.163628,11.753067,0
5462,"Via S.Pietro 82-Villa Rosa",46.065063,11.248732,0
5476,"Romeno Scuola Elementare",46.393306,11.117608,0
5492,"Santa Croce Sp 5 Diram.Bivedo",46.024475,10.83625,0
5494,"Foppiano-Piazzale Chiesa",45.840857,11.062823,0
5678,"Revo'-Via Maffei",46.390022,11.064908,0
5737,"Ponte Caffaro-P.Zza Mercato",45.820117,10.528918,0
27,"San Vito",46.075433,11.138833,1
28,"Cognola 'Scuole'",46.075698,11.143991,2
29,"Cognola 'Scuole'",46.075853,11.144062,2
31,"Cognola Alla Veduta 'Roza'",46.078007,11.151432,2
37,"Degli Alpini Oberziner",46.079103,11.118143,2
38,"Cortesano",46.124481,11.133818,0
43,"Forte Bus De Vela",46.08533,11.069658,0
46,"Gabbiolo 'Campo Sportivo'",46.055265,11.148982,1
47,"Gabbiolo 'Campo Sportivo'",46.05531,11.148782,1
48,"Sp 76 Carpenedi",46.117195,11.108678,2
50,"Gardolo S.Anna",46.111144,11.109544,1
51,"Gardolo S.Anna",46.110834,11.109573,1
54,"Gardolo Piazza",46.10834,11.111719,1
55,"Gardolo Piazza",46.108506,11.111436,2
56,"Canova Aichner",46.101856,11.103284,2
58,"Gardolo Don Milani 8 Marzo",46.103934,11.117583,2
60,"Gardolo D.Milani 'Piscina'",46.106749,11.114389,2
62,"Gardolo S.Anna Carpenedi",46.11332,11.107854,1
63,"Gardolo S.Anna Carpenedi",46.113459,11.107399,1
64,"Gardolo Svincolo Ss.12",46.106227,11.109072,1
66,"Gazzadina Al Pontat",46.128445,11.129219,2
77,"Lavis Nazionale",46.138664,11.108989,2
78,"Lavis Piazza Mercato",46.137921,11.114458,1
79,"Lavis 'Municipio'",46.139321,11.111958,2
81,"Lavis Cembra",46.143164,11.106402,1
131,"Sp 76 'Piac'",46.12669,11.114532,1
677,"Zivignago",46.067276,11.252921,0
5484,"Mattarello-Ex St.Vestimenta",46.000768,11.126337,0
5491,"Tassullo Strada Quattro Ville",46.339811,11.052438,0
5903,"Maso Colpi Strada Dell'olmo 26",45.99232,11.320755,0
5911,"Trento-Via Galassa",46.113157,11.090203,0
5918,"Agordo-Luxottica",46.206605,11.946454,0
5926,"Gosaldo",46.271378,12.00462,0
5930,"Gosaldo",46.275807,12.016868,0
5935,"Vigo di Fassa-Fassa Coop",46.423145,11.679969,0
158,"Ss 45 'Montevideo'",46.080499,11.098333,2
2287,"Sp.20 Zisi",45.931416,11.022116,2
73,"Lamar 'Ftm'",46.125715,11.107713,2
85,"Centochiavi Dalla Fior",46.094611,11.120675,2
86,"Centochiavi Chiocchetti",46.093993,11.120699,2
88,"Parco di Melta",46.097274,11.119767,0
90,"Melta Centro",46.100104,11.11873,2
92,"Bettini 'Madonna Bianca'",46.0425,11.132908,2
93,"Stella 'S.Gaetano'",46.036416,11.130367,2
94,"Ss 12 'Casteller'",46.025284,11.132751,2
96,"Madonna Bianca 'S.Gaetano'",46.038012,11.130695,2
97,"Stella Marighetto",46.034256,11.131509,1
99,"Ss 12 'Le Caverne'",46.030862,11.132677,2
101,"Martignano Formigheta",46.089121,11.13309,1
102,"Martignano Formigheta",46.089134,11.133216,1
2957,"Piazza Centa",46.076208,11.123764,0
104,"Sp 131 'Maso Pradiscola'",46.083189,11.135736,2
105,"Sp 131 'Maso Pradiscola'",46.083255,11.135874,1
107,"Martignano P.Zza Menghin",46.090275,11.13146,2
108,"Martignano Piazza Canopi",46.089343,11.131031,1
109,"Sp 131 'Res. Silvana'",46.097726,11.126962,2
111,"Martignano Ai Bolleri",46.094491,11.130145,2
112,"Martignano Ai Bolleri",46.094872,11.129322,2
113,"Sopramonte 'Maso Banal'",46.068953,11.063564,2
117,"Ravina 'Maso Stella'",46.032355,11.112678,2
118,"Ravina 'Maso Stella'",46.032555,11.11293,2
119,"Mattarello Piazza Perini",46.006903,11.128338,2
210,"Romagnano Sud",46.012091,11.104952,2
1303,"Marco Chiesa",45.841469,11.008281,2
121,"Mattarello Via Nazionale",46.011659,11.130375,2
124,"Mattarello 'Ronchi'",46.017362,11.132609,2
125,"Mattarello S.Leonardo",46.006454,11.127627,2
127,"Mattarello Catoni",46.00938,11.128974,1
129,"Meano Bivio S.Lazzaro",46.128303,11.115281,2
130,"Meano Bivio S.Lazzaro",46.127538,11.115265,2
133,"Sp 76 'Maregioli'",46.130755,11.12175,2
136,"Meano 'Campo Sportivo'",46.12831,11.119721,1
138,"Meano 'Cimitero'",46.125483,11.11832,1
139,"Sp 76 'Via Rossa'",46.119858,11.111416,2
142,"Meano Portoni",46.123624,11.116855,2
144,"Sp 76 Dos di Lamar",46.124718,11.113018,1
147,"Mesiano 'Stazione Fs'",46.064947,11.141689,1
148,"Mesiano 'Stazione Fs'",46.065068,11.141726,1
149,"Povo Valoni",46.065698,11.146418,1
155,"Sp 131 'Paganin'",46.106524,11.137306,2
156,"M.Vaccino 'Maso Librar'",46.110418,11.138435,2
159,"Villazzano Valnigra",46.052092,11.146621,1
160,"Villazzano Valnigra",46.052181,11.146486,1
161,"Oltrecastello",46.072808,11.161957,0
163,"Piazza Dante 'Palazzo Pat'",46.072304,11.120426,1
164,"Piazza Duomo",46.0676,11.121798,0
169,"Piazzale A22",46.077292,11.111111,0
171,"Brescia 'Piedicastello'",46.07087,11.113316,1
174,"Ponte Lodovico",46.069352,11.138957,0
175,"Ponte Lodovico",46.069523,11.140201,0
177,"Cervara 'Port'aquila'",46.070179,11.128083,2
178,"Cervara 'Port'aquila'",46.070164,11.12789,1
179,"Spré Pinara",46.067264,11.160937,1
181,"Povo 'Casa di Riposo'",46.065663,11.159678,2
182,"Povo 'Casa di Riposo'",46.065594,11.15953,1
183,"Povo 'Centro Civico'",46.064162,11.152006,1
187,"Povo Piazza Manci",46.065955,11.154596,2
188,"Povo 'Fac. Scienze'",46.063289,11.150005,1
189,"Povo 'Fac. Scienze'",46.063316,11.150209,1
191,"Povo 'Polo Sociale'",46.065632,11.157936,1
195,"Ravina 'Case Itea'",46.03794,11.114062,2
199,"Ravina Per Belvedere",46.041001,11.106237,1
200,"Ravina Del Ponte",46.043295,11.112317,2
201,"Ravina Del Ponte",46.041069,11.113117,2
204,"Romagnano Nord",46.019954,11.110897,2
335,"Fermi La Clarina",46.048733,11.128986,1
205,"Romagnano Fontanelle",46.015323,11.107087,2
208,"Romagnano Piazza Condini",46.017751,11.105818,1
213,"Roncafort",46.101271,11.101583,0
214,"Ss 12 'Zona Ind.Le Ftm'",46.120242,11.105822,2
217,"Verona 'S.Bartolameo'",46.05072,11.130389,1
218,"Verona 'S.Bartolameo'",46.050943,11.130473,1
219,"San Donà",46.071656,11.138308,1
226,"San Rocco Torricelle",46.038541,11.145521,2
227,"San Rocco Piazza",46.036364,11.146158,1
230,"Sopramonte Bivio Baselga",46.075572,11.058469,2
231,"Sopramonte Bivio Baselga",46.075783,11.058721,2
232,"Sopramonte 'Valle'",46.075836,11.056024,2
450,"Venezia Cave",46.066609,11.131484,2
235,"Sopramonte Piazza Oveno",46.071151,11.05952,2
236,"Sopramonte 'Bunaga'",46.069103,11.056869,2
238,"Spini di Gardolo",46.121729,11.089889,0
239,"Spini Linz",46.118504,11.096131,2
241,"Spini Monaco",46.118623,11.092766,2
242,"Spini Monaco",46.118581,11.092616,2
243,"Spré S.Lucia",46.069294,11.161412,2
245,"Sp 85 'Soraval'",46.083258,11.063955,2
246,"Sp 85 'Soraval'",46.083094,11.063877,2
250,"Tavernaro 'Salet'",46.081815,11.157965,1
251,"Tavernaro 'Salet'",46.082026,11.158507,1
253,"Tavernaro 'Villa Clementi'",46.081266,11.155969,2
254,"Vela Centro",46.082085,11.102047,2
255,"Vela Alla Scala",46.078955,11.103563,1
256,"Vela Alla Scala",46.078841,11.103473,1
258,"Gardolo 4 Nov. 'Piscina'",46.104288,11.112963,1
259,"Gardolo 4 Nov. Soprasasso",46.10656,11.112346,2
261,"Gardolo 'Stazione Ftm'",46.107233,11.103861,2
262,"M. Rossi 'Stella D.Mattino'",46.107384,11.101204,1
264,"Al Desert Muredei",46.051409,11.11737,2
265,"Al Desert Muredei",46.050987,11.117056,1
267,"Al Desert Ragazzi Del '99",46.047147,11.115661,1
271,"Asiago 'Cernidor'",46.050242,11.1372,2
272,"Asiago 'Bellevue'",46.053348,11.136344,2
274,"Asiago 'Cernidor'",46.04955,11.137273,2
275,"Castello Buonconsiglio",46.070312,11.126964,0
276,"Sanzio 'Castello'",46.071906,11.126021,1
278,"Ss 47 Muralta",46.077059,11.131773,2
280,"Martignano Capitel",46.081762,11.126874,1
282,"Bettini 'Nido Mad. Bianca'",46.040082,11.135431,1
283,"Bezzi Filzi",46.058467,11.119271,1
286,"Ss 12 'Pioppeto'",46.108369,11.108528,1
287,"Ss 12 Bivio Meano",46.116062,11.106197,2
290,"Ss 12 Canova",46.100264,11.111578,1
291,"Brennero 'Bren Center'",46.091361,11.115392,1
293,"Brennero Marconi",46.082901,11.120503,1
294,"Brennero Malvasia",46.077969,11.123274,1
295,"Brennero Marconi",46.08372,11.119823,1
297,"Brennero 'Ex Scalo Filzi'",46.079982,11.122133,1
298,"Brennero 'Ex Scalo Filzi'",46.079301,11.122355,1
301,"Brigata Acqui 'Itc Tambosi'",46.065346,11.1284,1
457,"Verona Fogazzaro",46.05651,11.128372,1
302,"Calepina Roccabruna",46.066833,11.122735,2
303,"Roncafort Bettine",46.09753,11.102648,2
307,"Spalliera Cereria",46.074158,11.128327,2
309,"Martignano Cesarini",46.087137,11.129668,2
312,"Conci Ferrovia",46.039365,11.137717,2
313,"Conci Ferrovia",46.039883,11.137453,2
314,"Degasperi Anna Frank",46.050201,11.124017,1
316,"Degasperi 'Palazzo Stella'",46.043178,11.129229,1
317,"Degasperi 'Palazzo Stella'",46.042977,11.129678,1
318,"Degasperi 'Big Center'",46.04487,11.128026,1
320,"Degasperi La Clarina",46.048057,11.126674,1
321,"Degasperi La Clarina",46.04868,11.126247,1
323,"Dei Mille 'Villa Igea'",46.062506,11.127984,1
324,"Villazzano 'Villa De Mersi'",46.048131,11.143328,1
325,"Martignano Costiole",46.092274,11.132622,1
327,"Martignano Castori",46.083356,11.127848,2
329,"Dos Trento Mariano",46.074597,11.113358,1
333,"F.Lli Fontana Gen. Cantore",46.076988,11.118892,1
338,"Fogazzaro 'Piscina'",46.056279,11.130465,1
339,"Fogazzaro 'Piscina'",46.055966,11.12961,1
341,"Galilei Firmian",46.068182,11.125504,2
345,"Ghiaie Monte Baldo",46.056275,11.116062,2
346,"Ghiaie 'Giardinerie'",46.053228,11.116716,1
347,"Giovanelli 'Osp. S.Camillo'",46.065485,11.131892,1
352,"Gorizia Adamello",46.059882,11.131327,1
353,"Gramsci 'Materna La Clarina'",46.053319,11.125589,1
354,"Gramsci Einaudi",46.052678,11.128127,2
356,"Guardini Gilli",46.091986,11.11908,1
357,"Guardini Gilli",46.091235,11.119268,2
358,"Lunelli Centochiavi",46.092703,11.119936,1
361,"Maccani Commercio",46.091714,11.10751,2
362,"Maccani Commercio",46.091591,11.10745,1
363,"Maccani Campotrentino",46.085771,11.112487,1
365,"Maccani Abondi",46.080928,11.116577,1
366,"Maccani Abondi",46.0808,11.116529,1
368,"Maccani 'Polizia Locale'",46.08972,11.109149,1
370,"Maccani 'Rotatoria'",46.082853,11.114968,1
372,"Maccani 'Ex Sloi'",46.087847,11.110579,1
374,"Marconi Solteri",46.084413,11.121323,2
375,"Marconi Solteri",46.084543,11.121732,1
378,"Villazzano Giordano",46.050678,11.148464,2
379,"Villazzano Giordano",46.050736,11.148327,2
380,"Mattioli Vittorio Veneto",46.058838,11.122521,1
2855,"Via Salvetti",45.905949,11.042877,0
384,"Menguzzato 'Centro Civico'",46.040107,11.13207,1
386,"Milano A Prato",46.060791,11.127602,2
387,"Milano A Prato",46.060723,11.127671,1
388,"Missioni Africane",46.07676,11.128229,0
389,"Quattro Strade",46.075587,11.128243,0
392,"Monte Baldo Ghiaie",46.057153,11.115163,2
393,"Muredei Prati",46.056966,11.118125,2
397,"Oberziner Alpini",46.078744,11.117589,1
398,"Orfane S.Maria Maggiore",46.068847,11.119927,2
401,"F.Lli Perini 3 Novembre",46.060903,11.1244,1
402,"Piave 'Parco S.Chiara'",46.064151,11.127563,2
405,"Rosmini 'Cimitero'",46.063745,11.119596,1
406,"Rosmini S.Maria Maggiore",46.067846,11.118867,1
408,"3 Nov. 'Centro S.Chiara'",46.062231,11.123671,1
409,"3 Nov. 'Centro S.Chiara'",46.062181,11.123931,1
410,"S.Francesco Porta Nuova",46.067075,11.126226,1
412,"S.Pio X Matteotti",46.056396,11.119944,1
413,"S.Pio X Largo Prati",46.056862,11.119124,1
414,"S.Pio X Benevoli",46.053951,11.120497,1
416,"Sanseverino S.Nicolò",46.052351,11.112016,1
417,"Sanseverino S.Nicolò",46.051036,11.111609,1
422,"Solteri 'Piazzina'",46.085489,11.122562,1
424,"Solteri Largaiolli",46.089937,11.120942,1
426,"Solteri 'Nido La Trottola'",46.087985,11.121274,1
427,"Solteri 'Nido La Trottola'",46.087571,11.121354,1
430,"Gardolo 'Cimitero'",46.106505,11.105512,1
432,"Parco Del Dos Trent",46.073309,11.107377,0
433,"Brescia Divisioni Alpine",46.071055,11.109691,2
434,"Brescia Divisioni Alpine",46.070912,11.10966,2
436,"Vela S.Giorgio",46.076061,11.105187,1
1364,"Via Cavour",45.887163,11.038518,0
437,"Dos Trento 'Centro Sportivo'",46.075676,11.106983,2
438,"Dos Trento 'Centro Sportivo'",46.075319,11.107407,2
441,"Maso Rossi Aichner",46.105159,11.100565,2
447,"Vittorio Veneto Lorenzoni",46.058577,11.123837,1
448,"Largo Prati",46.057597,11.117583,0
1292,"Chiusole",45.92552,11.052173,2
1293,"Chiusole",45.92539,11.053592,2
2529,"Borino Civ.69",46.066125,11.168745,2
1307,"Nogaredo Via Zuccate",45.912139,11.025272,2
1308,"Nogaredo Via Zuccate",45.912212,11.025262,2
1309,"Nomi 'Casa di Riposo'",45.927892,11.076793,2
2232,"Isera Via Rosina",45.887771,11.010711,2
543,"Piazzoli",46.214258,11.323611,0
452,"Venezia 'Corallo'",46.06857,11.136388,1
454,"Vicenza Montello",46.06167,11.135931,1
455,"Vicenza Montello",46.061778,11.135821,1
458,"Verona Fogazzaro",46.056407,11.128667,1
459,"Verona 'Palazzo Stella'",46.043574,11.131166,1
460,"Verona Menguzzato",46.042589,11.131405,2
463,"Verona Einaudi",46.052746,11.12988,1
464,"Verona 'Questura'",46.048048,11.131243,2
467,"Vigo Meano Rio Papa",46.133302,11.132599,2
468,"Vigo Meano Rio Papa",46.133567,11.132452,2
3007,"Isera Asilo",45.884265,11.008314,2
470,"Vigo Meano Piazza Stainer",46.13201,11.134083,1
472,"Gazzadina Al Molar",46.130546,11.13063,2
474,"Villazzano Villa Belfonte",46.043654,11.149738,1
475,"Villazzano 'Villa Tambosi'",46.043856,11.140566,1
478,"Villamontagna 'Michei'",46.084032,11.162655,2
479,"Villamontagna 'Michei'",46.084634,11.163253,2
485,"Villazzano Piazza Nicolini",46.049116,11.146036,1
486,"Villazzano Banala",46.047513,11.142278,1
491,"Zell Marnighe",46.079984,11.138881,1
492,"Spini 'Officine'",46.118326,11.100624,2
2244,"Molina",45.855393,10.986692,2
494,"Spini 'Zona Ind.Le Ftm'",46.118118,11.103691,2
496,"Spini Klagenfurt",46.117796,11.094285,1
497,"Spini Klagenfurt",46.117695,11.094346,1
524,"3 Nov. 'Ponte Cavalleggeri'",46.059417,11.126263,1
1278,"Corso Bettini Liceo",45.896138,11.043343,1
1279,"Corso Bettini Liceo",45.895066,11.04341,1
1282,"Corso Rosmini Via Savioli",45.890972,11.038504,1
1283,"Corso Rosmini Monumento",45.89087,11.042857,1
1284,"Corso Rosmini Posta",45.890973,11.041257,1
2216,"Brancolino",45.902219,11.02027,2
1286,"Corso Verona Ospedale",45.882343,11.040385,1
1287,"Lizzanella Corso Verona",45.875566,11.034071,2
1290,"Via Vicenza Via Cartiera",45.887155,11.050411,2
1295,"Costa Capolinea",45.884218,11.072911,2
1297,"Marco Via Pinera",45.847835,11.011731,2
1298,"Marco Centro",45.844005,11.008643,2
1299,"Marco Chiesa",45.841765,11.007816,1
1300,"Marco Via Alla Ghiffa",45.840118,11.009468,2
1324,"Piazzo",45.922256,11.033881,1
1325,"Piazzo",45.922219,11.033932,2
1327,"Pomarolo Chiesa",45.926386,11.045658,2
1328,"Pomarolo Via Degasperi",45.926343,11.04244,2
1304,"Marco Centro",45.843767,11.008609,1
1312,"Stazione Fs",45.890593,11.034104,0
1314,"Piazzale S.Giorgio Ovest",45.895699,11.028855,0
1315,"Piazzale S.Maria Ospedale",45.883438,11.040503,2
1318,"Piazza Manifattura",45.883923,11.021153,0
1319,"Piazza Manifattura",45.883838,11.020771,0
1322,"Piazza Podestà",45.886586,11.045629,0
1331,"S.Ilario Sav",45.908213,11.040563,2
1333,"S.Ilario Sav",45.908078,11.040657,2
1337,"Viale Dei Colli 'Distributore'",45.887439,11.059541,2
1338,"Sp.2 Fr. Campolongo",45.886995,11.063902,1
1341,"Sp.2 Fr. Campolongo",45.886988,11.063994,1
1342,"Noriglio Via Dei Cimbri",45.884696,11.06965,2
1347,"Lizzana Cristo",45.867259,11.03084,1
1348,"Lizzana Scuole Medie",45.870236,11.031119,1
1351,"Lizzanella Ss.12",45.875686,11.03203,2
1359,"Via Benacense Parco Ferrari",45.878072,11.033318,1
1360,"Via Benacense Scuole Dante",45.879617,11.035043,1
1361,"Via Benacense Scuole Dante",45.879709,11.035212,1
1365,"Via Cavour Via Riva",45.887293,11.034164,1
1367,"Via Cesari Stazione Fs",45.890279,11.035658,2
1369,"Via Dante Borgo S.Caterina",45.889592,11.04046,2
1371,"Via Dante Mon. All'alpino",45.886067,11.040305,2
1372,"Viale Dei Colli Sc. Alberghiera",45.891067,11.047189,2
1375,"Viale Dei Colli S.Biagio",45.890265,11.050139,2
1378,"Via Lungo Leno Destro",45.884855,11.038586,0
1383,"Via Manzoni A.S.M.",45.893369,11.036067,2
1384,"Via Manzoni A.S.M.",45.893369,11.036193,2
1386,"Via Balista",45.894961,11.032738,0
1388,"Via Manzoni Via Paoli",45.892237,11.03937,1
1424,"Villa Lagarina Via Alpini",45.914559,11.034087,2
1426,"Villa Lagarina Via Solari",45.917108,11.028806,1
1427,"Villa Lagarina Via Solari",45.917136,11.028755,2
2217,"Brancolino Sp.90",45.900719,11.020254,1
2226,"Cornale'",45.881541,11.010793,2
2227,"Cornale'",45.8815,11.010729,2
2231,"Isera Via Rosina",45.887566,11.010587,2
2234,"Isera Cimitero",45.888491,11.011704,2
2237,"Lenzima",45.878491,10.992327,0
2238,"Marano",45.895859,11.015489,2
2239,"Marano",45.895743,11.015472,2
1392,"Via Pasubio Via Unione",45.887465,11.024942,1
1397,"Via A Prato",45.893666,11.030581,0
1399,"Via Puccini Via Donizetti",45.901372,11.04622,2
1400,"Via Pellico Brione",45.904569,11.042576,2
1405,"Via Tiella",45.907669,11.043757,0
1411,"Via Zeni 'Centro Tecnofin'",45.891013,11.032714,1
1412,"Viale Trento Via Magazol",45.899562,11.042141,1
1415,"Viale Trento Via Brione",45.901722,11.041666,1
1416,"Viale Trento Via Salvetti",45.90661,11.040104,2
1418,"Viale Vittoria Via Zotti",45.885459,11.025871,2
1419,"Viale Vittoria Fucine",45.886441,11.029403,1
1420,"Viale Vittoria Via Zotti",45.885252,11.025383,1
1422,"Ss.12 'Rovercenter'",45.86449,11.029338,2
1432,"Via Monte Corno",45.893135,11.037613,0
1433,"Via Parteli",45.896472,11.036768,0
1434,"Via Pasqui",45.899597,11.037398,0
1444,"Via S.Maria",45.884661,11.042935,0
1446,"Via Zotti Via Cevedale",45.885721,11.025832,1
1447,"Via Zotti",45.886239,11.021005,0
1504,"Via Fornaci 'Texbond'",45.860058,11.005383,2
2189,"Piazza Dante 'Dogana'",46.072592,11.119949,1
2213,"Bivio Per Senter",45.881211,11.077472,0
2214,"Bivio Per Senter",45.881441,11.077608,0
2219,"Casa Del Falegname",45.88572,11.076344,0
2220,"Casa Del Falegname",45.88563,11.076356,0
2247,"Mori Via Garibaldi",45.853043,10.975311,1
2249,"Mori Via Don Sturzo",45.853419,10.970185,1
2250,"Mori Via Filzi",45.854286,10.972109,1
2253,"Noarna",45.91109,11.012496,2
2254,"Noarna",45.910988,11.01248,2
2256,"Nogaredo Municipio",45.911989,11.023088,2
2257,"Nogaredo Vignai",45.91071,11.019922,2
2258,"Nogaredo Via Dei Colli",45.911742,11.021481,2
2261,"Villa Lagarina Via Marconi",45.915659,11.02776,2
2811,"Fermi Volta",46.046974,11.12686,2
2262,"Villa Lagarina Via Marconi",45.914818,11.02775,2
2268,"Pedersano Capolinea",45.922625,11.020454,2
2272,"Pedersano Centro",45.91789,11.019717,2
2277,"Reviano",45.891169,11.00734,2
2278,"Reviano",45.891587,11.007136,2
2286,"Sp.20 Zisi",45.931009,11.022102,2
2307,"Via D.Chiesa",45.8862,11.019384,0
2222,"Casa Nel Bosco",45.882347,11.076349,0
2224,"Cisterna",45.883094,11.08635,2
2225,"Cisterna",45.883158,11.086399,2
2532,"Borino Civ.69",46.06601,11.168863,2
2273,"Piazza Filzi Via Del Porto",45.884058,11.017995,1
2276,"Mori Stazione Via Stazione",45.861835,11.000757,2
2282,"S.Ilario Iti",45.909897,11.041744,2
2283,"S.Ilario Via Stroperi",45.912441,11.043809,1
2284,"S.Ilario Via Stroperi",45.912525,11.044027,1
2288,"Sp.20 S.Sisinio",45.924981,11.021093,2
2291,"Ss.240 'Millennium Sud'",45.868802,11.01417,2
2292,"Ravazzone",45.858843,10.99064,2
2295,"Saltaria",45.895428,11.067237,2
2298,"Sasso",45.904055,11.013671,2
2299,"Sasso",45.904012,11.013554,2
2301,"Tierno Via Cooperazione",45.846039,10.979227,1
2302,"Tierno Via Battisti",45.847813,10.977934,2
2304,"Toldi",45.897923,11.061752,0
2311,"Via Fedrigotti Chiesa",45.884259,11.020421,2
2312,"Noriglio Via Fontani",45.884341,11.068686,2
2318,"Via Lagarina",45.910398,11.039909,0
2321,"Via Lagarina",45.910879,11.039811,0
2323,"Via Puccini Via Perosi",45.904524,11.044655,1
2331,"Viale Del Lavoro 'Aticarta'",45.866295,11.023867,2
2332,"Viale Dell'industria",45.871749,11.020845,0
2334,"Villa Lagarina Via Magrè",45.91752,11.033502,1
2335,"Villa Lagarina V.Segantini",45.916175,11.03415,2
2337,"Volano Ss.12",45.917871,11.064024,2
2338,"Volano Ss.12",45.917904,11.063866,2
2339,"Volano Via Roma",45.917155,11.069927,1
2340,"Volano Des Tor",45.917486,11.057512,2
2342,"Zaffoni",45.89131,11.065552,2
2343,"Zaffoni",45.891281,11.065714,2
2354,"Via All'adige",45.888337,11.019067,0
2356,"Pomarolo Via Del Pionte",45.925107,11.048121,2
2359,"Molini",45.913939,11.021211,2
2360,"Lago di Cei Bellaria",45.957515,11.032165,2
2361,"Lago di Cei",45.951091,11.023207,2
2364,"Sp.20 Bivio Per Bordala",45.93091,11.007172,2
2367,"Sp.20 Bivio Per Bordala",45.930864,11.007233,2
2368,"Sp.20 Maso Tiaf",45.93589,11.008594,2
2369,"Lago di Cei Capitello",45.94749,11.014818,2
2372,"Molini",45.914136,11.02127,2
2511,"Isera P.Zza S.Vincenzo-O.",45.885459,11.009157,2
2514,"Ss.240 Ponte Sull'adige",45.863191,10.997289,2
2888,"Genovesa",45.882458,11.062553,2
2377,"Sp 76 Bivio S.Lazzaro",46.129006,11.1155,2
2380,"Trener '3 Torri Pat'",46.095023,11.116759,2
2385,"Zambra 'Ist. D'arte Vittoria'",46.092507,11.116291,2
2386,"Meano 'Centro Civico'",46.127448,11.11652,1
2389,"Centochiavi Lunelli",46.092618,11.120549,1
2394,"Piazza Guella",45.867441,11.031932,0
2395,"Largo S.Floriano",45.866422,11.032697,0
2397,"Via Cornacalda",45.866722,11.034907,0
2404,"Romagnano 7 Fontane",46.014314,11.104351,2
2405,"Travai Piazza Fiera",46.06477,11.122471,2
2407,"Ghiaie Monte Baldo",46.056336,11.116202,2
2408,"Parcheggio Zuffo",46.075042,11.109713,0
2409,"Cavalcavia S.Lorenzo",46.070352,11.119107,0
2412,"Piazzale A22",46.077383,11.111236,0
2418,"Ss 12 'Pioppeto'",46.108623,11.108717,1
2419,"Ss 12 S.Anna",46.112409,11.107438,2
2421,"Via A Prato",45.893565,11.030778,0
2424,"S.Lorenzo 'Funivia'",46.070045,11.116683,2
4,"Lavis",46.138361,11.109139,0
2431,"Sanseverino 'Albere'/Muse",46.063334,11.113227,1
2437,"Ravina Della Croce",46.040974,11.110975,1
2438,"Ss 12 Talvera",46.103288,11.110545,1
2447,"Ghiaie Salisburgo",46.122767,11.103337,2
2449,"Spini Praga",46.123666,11.097351,2
2454,"Crosare Officina",46.110069,11.105486,2
2455,"Crosare Parcheggio",46.107991,11.105394,2
2457,"Gardolo Castel di Gardolo",46.113907,11.110614,2
2470,"Jedin Sanseverino",46.051139,11.114415,2
2472,"Lamar 'Via Rossa'",46.121491,11.106413,2
2483,"Sopramonte 'Campra'",46.078491,11.05829,1
2484,"Sopramonte 'Campra'",46.07873,11.058131,1
2485,"Brescia 'Ca Dei Gai'",46.073335,11.105639,2
2490,"Povo Pantè",46.064013,11.15094,2
2491,"Roncafort Caproni",46.100115,11.099708,1
2497,"Ponte di Ravina",46.045489,11.113301,0
2498,"Ponte di Ravina",46.04552,11.113603,0
2499,"Villazzano 'Chiesa'",46.049487,11.143843,1
2501,"Sopramonte 'M.Petoci'",46.066953,11.059509,2
2515,"Ss.240 Ponte Sull'adige",45.863235,10.997355,2
2543,"Villa Lagarina V. Zandonai",45.912479,11.031904,2
2660,"Patone Gera",45.89794,11.002067,2
2662,"Patone Gera",45.897942,11.002101,2
2746,"Lenzima Via Della Vittoria",45.877392,10.991755,2
2760,"Savignano",45.938008,11.056056,0
109,"Grumes",46.221662,11.293931,0
2506,"Muralta Valsugana",46.076656,11.130377,2
2508,"Toldi",45.89797,11.061612,0
2509,"Costa",45.884401,11.072918,0
2521,"Gazzadina Le Case Nòve",46.134118,11.128307,1
2522,"Gazzadina Del Porfido",46.130582,11.126162,1
2524,"Cimirlo",46.067613,11.1847,0
2526,"Celva",46.070701,11.176484,0
2528,"Maso di Brenz",46.065719,11.172233,0
2533,"Maso di Brenz",46.065674,11.17238,0
2534,"Via Eremo",46.067908,11.175717,0
2535,"Eremo",46.068202,11.178588,0
2540,"Viale Caproni 'Luxottica'",45.864859,11.017764,2
2663,"Gardolo 4 Nov. 2 Giugno",46.101253,11.112956,1
2665,"Spini Loghét",46.120567,11.09122,1
2669,"Fersina 'Zona Sportiva'",46.041683,11.123711,2
2670,"Piazza Cappuccini",46.073078,11.128449,0
2671,"Avancini Laste",46.071422,11.130842,2
2672,"Rsa Angeli Custodi",46.06988,11.131249,0
2680,"Gazzoletti Piazza Dante",46.071816,11.121974,1
2683,"Povo 'Polo Scientifico' Est",46.067312,11.150548,2
2688,"Villazzano 'Stazione Fs'",46.044757,11.13969,1
2689,"Villazzano 'Stazione Fs'",46.044754,11.139437,1
2696,"Conci 'Enaip'",46.045465,11.138353,1
2701,"Ss 349 Pozzata",46.041779,11.142383,2
2706,"Via Pedroni",45.892216,11.03302,0
2713,"Dos Trento Mariano",46.073694,11.114481,2
2757,"Noriglio Mon. Ai Caduti",45.884029,11.070128,2
2758,"Viale Vittoria Scuole Degasperi",45.884931,11.023892,1
2759,"Via Delle Laste",46.072466,11.12992,0
2800,"Pedersano",45.922564,11.020236,0
2802,"Villa Lagar. 'Bocciodromo'",45.920748,11.032004,2
2803,"Villa Lagar. 'Bocciodromo'",45.920286,11.031888,1
2805,"Villa Lagarina 'Al Ponte'",45.913174,11.037349,2
2824,"Mori Via Terra Nera",45.850031,10.981009,2
2835,"Calliano Via Marcolini",45.931773,11.092114,2
2837,"Volano Via Delle Ancone",45.917819,11.076406,2
2838,"Ss.12 Fornaci",45.919443,11.085327,2
2839,"Volano Via Roma",45.917298,11.07005,1
2843,"Sp.20 Bivio Noarna",45.915825,11.016559,2
2844,"Sp.20 Bivio Noarna",45.91588,11.016803,2
2901,"Monte Ghello",45.887015,11.066337,2
2998,"Via Campagnole",45.889292,11.037028,0
2770,"Via Comel",45.904014,11.04231,0
2775,"Via Zigherane",45.879247,11.023765,0
2777,"Baldresca",45.880129,11.028545,0
2780,"Ss 45 S.Giorgio",46.078668,11.099302,2
2782,"Spini 'Pal. Giano'",46.121548,11.095251,1
2784,"Spini Varsavia",46.125601,11.098331,2
2785,"Spini Varsavia",46.125804,11.098199,2
2787,"Spini Masadori",46.120114,11.096203,1
2788,"Spini Bregenz",46.11716,11.09252,2
2791,"Interporto 'Interbrennero'",46.111101,11.090984,1
2793,"Innsbruck 'Trentino Trasporti'",46.101701,11.094567,1
2889,"Noriglio Via Jacob",45.883853,11.067449,2
2794,"Innsbruck 'Trentino Trasporti'",46.10222,11.09439,1
2796,"Interporto 'Logistica 2'",46.10595,11.092154,1
2799,"Spini Praga",46.123624,11.09744,2
2806,"Ss.240 'Alla Staffa'",45.87276,11.024323,2
2815,"Mattarello Fratte",46.00544,11.126382,2
2816,"Via Zandonai",45.88668,11.020121,0
2817,"Roncafort Nord",46.103456,11.100248,1
2829,"Interporto 'Sait'",46.113405,11.09034,1
2832,"Viale Vittoria Scuole Degasperi",45.884804,11.02396,1
2856,"Ss.12 Castel Pietra",45.921721,11.091309,2
2857,"Ss.12 Castel Pietra",45.922938,11.092225,2
54,"Penia",46.45743,11.79184,0
2858,"Ss.12 Campagnole",45.928854,11.093011,2
2861,"Porte di Trambileno",45.883348,11.0516,2
2862,"Porte di Trambileno",45.88353,11.052029,2
2877,"Ss.240 'Meb'",45.867858,11.011826,2
2892,"Nogaredo Vignai",45.910279,11.019418,2
2905,"Castellano Don Zanolli",45.92614,11.005759,2
2906,"Calliano Ss.12",45.934315,11.096017,2
2907,"Calliano Ss.12",45.934334,11.09587,2
2908,"Calliano Cimitero",45.936981,11.09886,2
2910,"Besenello Nord",45.945821,11.106088,2
2911,"Besenello Sud",45.936872,11.110211,2
2919,"Volano Via Spiazze",45.915721,11.051424,2
127,"Cembra",46.175121,11.222045,0
2928,"Porte Chiesa",45.883422,11.053319,2
2929,"Porte Via Al Brentegam",45.881067,11.053138,2
2931,"Dosso",45.881357,11.054807,2
2932,"Porte Chiesa",45.883185,11.053713,2
2933,"Porte Via Al Brentegam",45.880931,11.052683,2
2935,"Dosso",45.881524,11.054598,2
2936,"Sp.89 Maso Brentegam",45.880439,11.050882,2
2989,"Marco Nord",45.849668,11.012629,2
2848,"Campana Dei Caduti",45.874381,11.040911,0
2849,"Marco Parco Ex De Bellat",45.843722,11.007151,2
2851,"Marco Via S.Romedio",45.845955,11.004526,2
2853,"Mori Stazione",45.860603,11.001714,2
2863,"Viale Schio",45.883599,11.043713,0
2865,"Viale Zugna",45.88447,11.047001,0
2866,"Viale Zugna",45.884452,11.047161,0
2868,"Viale Zugna 48",45.884347,11.049429,0
2869,"Via Magazol Viale Trento",45.899299,11.041955,1
2870,"Ss.240 'Alla Staffa'",45.87282,11.024167,2
2874,"Via Fornaci 'Texbond'",45.859392,11.005003,2
2875,"Via Fornaci 'Dana'",45.854746,11.004438,2
2884,"Via Bellini",45.899265,11.044679,0
2887,"Genovesa",45.882907,11.06255,2
2890,"Noriglio Via Jacob",45.883773,11.067597,2
2893,"Calepina Liceo",46.067092,11.124949,2
2895,"Cisterna Capolinea",45.883114,11.08731,2
2898,"Viale Schio S.Maria",45.884693,11.043501,2
2902,"Viale Caproni 'Chizzola'",45.86831,11.021991,2
2915,"Via Dell'artigiano",45.864405,11.017806,0
2918,"Gabbiolo Capolinea",46.055511,11.149102,2
2922,"Viale Dei Colli Bertolda",45.888345,11.051602,2
2925,"Spini Palazzine",46.116627,11.099962,2
2960,"Cadine Voltei",46.086301,11.068646,2
2968,"Pomarolo S.Antonio",45.933993,11.047844,2
2969,"Pomarolo S.Antonio",45.933955,11.047819,2
5,"S.Michele A/Adige",46.193684,11.132524,0
6,"Salorno-Salurn",46.240611,11.208106,0
8,"Egna-Neumarkt",46.315973,11.272452,0
9,"Cela-Aguai Bivio",46.291364,11.418721,0
12,"Cavalese-Bivio Carano",46.287417,11.441664,0
13,"Cavalese-Hotel Garden",46.289269,11.448069,0
15,"Cavalese-Piazza G.Verdi",46.290334,11.460692,0
16,"Cavalese-Autostaz.",46.287908,11.463237,0
17,"Tesero-Giardino Dolomiti",46.292465,11.484695,0
18,"Tesero-Loc. Piera",46.292226,11.492126,0
20,"Panchià-Casa Cantoniera",46.287144,11.53192,0
21,"Panchia'",46.285513,11.541747,0
24,"Predazzo-Borgo Nuovo",46.306538,11.598956,0
25,"Predazzo-Autostaz.",46.30952,11.604929,0
27,"Predazzo-Impianti Latemar",46.32866,11.600173,0
2937,"Via Fornaci Via Pineta",45.864979,11.006182,2
544,"Facendi",46.214915,11.321421,0
2939,"Funivia-Staz. di Valle-Trento",46.069625,11.115641,2
2940,"Funivia-Staz. di Monte-Sardagna",46.065992,11.102655,2
2945,"Mattarello Rozola",46.012737,11.132184,2
2947,"Mattarello Regole",46.011059,11.131736,2
2948,"Mattarello Regole",46.01121,11.131632,2
2951,"Mattarello 'Torre Franca'",46.006579,11.131078,2
2952,"Mattarello 'Torre Franca'",46.005932,11.129955,2
2954,"Mattarello Sud",46.002729,11.126221,1
2961,"Centa Brennero",46.075664,11.124036,1
2964,"Via Cipressi",45.870184,11.032805,0
2965,"Stadio Quercia",45.901209,11.036378,0
2971,"Melta 'Case Itea'",46.102287,11.118256,1
2979,"Via Magazol Via Cimarosa",45.899889,11.039718,2
2982,"Viale Del Lavoro 'Rovercenter'",45.863835,11.026975,2
2983,"Via Pasqui",45.89967,11.037306,0
2988,"Marco Nord",45.849547,11.012708,2
28,"Mezzavalle",46.337678,11.610035,0
33,"Moena-Piazza Ramon",46.37659,11.659822,0
36,"Soraga",46.396748,11.669557,0
38,"S.Giovanni di Fassa",46.421216,11.682022,0
39,"Pozza di Fassa",46.427261,11.682917,0
42,"Mazzin di Fassa",46.457958,11.701369,0
43,"Campestrin",46.462994,11.715177,0
45,"Campitello di Fassa",46.476657,11.74117,0
47,"Canazei-Gries",46.477899,11.763966,0
48,"Canazei-Via Pareda",46.476193,11.770875,0
49,"Canazei-Fun. Belvedere",46.474083,11.774376,0
52,"Alba di Canazei",46.461948,11.783003,0
53,"Alba di Canazei-Fun.Ciampac",46.459388,11.786093,0
59,"Penia",46.457907,11.791109,0
61,"Alba di Canazei",46.462156,11.782952,0
63,"Canazei-Fun. Belvedere",46.474069,11.774728,0
64,"Canazei-Gries",46.477765,11.764662,0
66,"Campitello di Fassa",46.476626,11.740973,0
67,"Fontanazzo",46.469607,11.726995,0
69,"Cavalese-Via Esterle",46.293121,11.457264,0
70,"Cavalese-Hotel Garden",46.289336,11.447864,0
71,"Laghetti-Laag",46.272132,11.238775,0
73,"Lavis",46.136494,11.109859,0
538,"Montesover",46.217084,11.327086,0
549,"Sorni Bivio",46.174975,11.122031,0
2992,"Via Del Garda Via Porte Rosse",45.872836,11.02889,2
2994,"Clinica Solatrix",45.89799,11.045512,0
2996,"Via Unione Via Zotti",45.886361,11.023197,2
1,"Trento-Autostaz.",46.070785,11.118461,0
3,"Trento-Bren Center",46.091322,11.115664,0
82,"Lavis-Via Cembra 16",46.143208,11.106619,0
84,"Lavis-Tornante-Via Cembra 50",46.141935,11.114444,0
85,"Maso Franch",46.143816,11.118841,0
86,"Mosana-Loc. Ai Castagnari",46.150492,11.12574,0
88,"Verla",46.157055,11.152529,0
89,"Verla-Cantina Rossi",46.154873,11.155408,0
90,"Valternigo",46.16079,11.15879,0
91,"Ville di Giovo",46.165785,11.157341,0
93,"Passo Croce",46.161487,11.134622,0
94,"Palu' di Giovo",46.158215,11.140403,0
95,"Verla-Bivio",46.155898,11.160681,0
96,"Ceola",46.159677,11.171453,0
103,"Faver Bivio",46.180959,11.231881,0
104,"Faver",46.181716,11.237795,0
107,"Valda-Capitello",46.207069,11.262068,0
108,"Valda",46.206784,11.266464,0
110,"Grauno",46.229415,11.298255,0
112,"Capriana",46.262789,11.339456,0
113,"Capriana-Albergo Miravalle",46.262057,11.343992,0
114,"Carbonare-Rover",46.266757,11.351746,0
116,"Molina di Fiemme-Scuole",46.272941,11.417697,0
118,"Molina di Fiemme-Scuole",46.274181,11.416707,0
119,"Castello di Fiemme-Conc.Fiat",46.278941,11.430137,0
121,"Castello di Fiemme",46.281233,11.434752,0
124,"Grumes",46.221405,11.294192,0
125,"Faver",46.181189,11.236672,0
129,"Ceola",46.159589,11.170867,0
130,"Verla",46.157152,11.15281,0
131,"Lavis-Via Bresadola",46.143962,11.112745,0
